id,name,location,country,latitude,longitude,rating,priceCategory,type,img,link
110681,One White Street,New York,USA,40.7193546,-74.006101,1,4,Contemporary,https://axwwgrkdco.cloudimg.io/v7/__gmpics3__/f1e1a128e4a5474b866e763422abda0a.jpeg,https://guide.michelin.com/us/en/new-york-state/new-york/restaurant/one-white-street
110644,Dirt Candy,New York,USA,40.71794,-73.99087,1,4,Vegetarian,https://axwwgrkdco.cloudimg.io/v7/__gmpics3__/2bae27d6bd9f45fa88050ff9b0b64f37.jpeg,https://guide.michelin.com/us/en/new-york-state/new-york/restaurant/dirt-candy
110607,Family Meal at Blue Hill,New York,USA,40.7319711,-73.9996385,1,4,American,https://axwwgrkdco.cloudimg.io/v7/__gmpics3__/0c4ea42fb28e4d22bcea597607e94e08.jpeg,https://guide.michelin.com/us/en/new-york-state/new-york/restaurant/blue-hill
110478,Blue Hill at Stone Barns,Tarrytown,USA,41.1007146,-73.8292966,2,4,American,https://axwwgrkdco.cloudimg.io/v7/__gmpics3__/c9146dd0e06543a383cefc369d5570c3.jpeg,https://guide.michelin.com/us/en/new-york-state/tarrytown/restaurant/blue-hill-at-stone-barns
110338,Oyster Oyster,Washington,USA,38.909302,-77.023015,1,3,Vegetarian,https://axwwgrkdco.cloudimg.io/v7/__gmpics3__/f6f94ffa8e914b5483b59ddea8c11378.jpeg,https://guide.michelin.com/us/en/district-of-columbia/washington-dc/restaurant/oyster-oyster
110270,The Inn at Little Washington,Washington,USA,38.7134767,-78.1595348,3,4,American,https://axwwgrkdco.cloudimg.io/v7/__gmpics3__/b3996754e4054731b52c93a7fc803621.jpeg,https://guide.michelin.com/us/en/district-of-columbia/washington-dc/restaurant/the-inn-at-little-washington
110164,Daisies,Chicago,USA,41.9242037,-87.6988684,0,2,Italian,https://axwwgrkdco.cloudimg.io/v7/__gmpics3__/d8b28d68d38e4d18a04aeb8adcde222e.jpg,https://guide.michelin.com/us/en/illinois/chicago/restaurant/daisies
107792,Emmer & Rye,Austin,USA,30.2564562,-97.739818,0,3,American,https://axwwgrkdco.cloudimg.io/v7/__gmpics3__/98d5edd8d5e74898b2136f9baf5dbfc9.jpg,https://guide.michelin.com/us/en/texas/austin_2958315/restaurant/emmer-rye
107745,Dai Due,Austin,USA,30.2847517,-97.7167116,0,2,American,https://axwwgrkdco.cloudimg.io/v7/__gmpics3__/6f94f09e49f548ecb85b533f66646645.jpg,https://guide.michelin.com/us/en/texas/austin_2958315/restaurant/dai-due
105594,The Chastain,Atlanta,USA,33.8731698,-84.3964879,-1,3,American,https://axwwgrkdco.cloudimg.io/v7/__gmpics3__/f824138aa0454472973c23182d90b17d.jpeg,https://guide.michelin.com/us/en/georgia/atlanta_2884144/restaurant/the-chastain
105584,Bacchanalia,Atlanta,USA,33.795105,-84.427274,1,4,American,https://axwwgrkdco.cloudimg.io/v7/__gmpics3__/1bcada35fa0c4ee7a79189e11b931646.jpg,https://guide.michelin.com/us/en/georgia/atlanta_2884144/restaurant/bacchanalia-1196004
103553,Bramble & Hare,Boulder,USA,40.018145,-105.2785678,-1,3,American,https://axwwgrkdco.cloudimg.io/v7/__gmpics3__/2d9658861a4640efac33193f7775ba79.jpg,https://guide.michelin.com/us/en/colorado/boulder_1261512/restaurant/bramble-hare
103544,Brutø,Denver,USA,39.7527561,-104.9969767,1,4,Mexican,https://axwwgrkdco.cloudimg.io/v7/__gmpics3__/3d6cfa70d2aa4bd7aa51d288c1267aaa.jpeg,https://guide.michelin.com/us/en/colorado/denver_1261491/restaurant/bruto
103542,Blackbelly Market,Boulder,USA,40.0148356,-105.2279535,-1,3,American,https://axwwgrkdco.cloudimg.io/v7/__gmpics3__/0d9cc891f7ce4503809bf5b2064b6cca.jpg,https://guide.michelin.com/us/en/colorado/boulder_1261512/restaurant/blackbelly-market
103510,The Wolf's Tailor,Denver,USA,39.77277,-105.01088,1,4,Contemporary,https://axwwgrkdco.cloudimg.io/v7/__gmpics3__/19e05ebe292147bf89256071b273588d.jpg,https://guide.michelin.com/us/en/colorado/denver_1261491/restaurant/the-wolf-s-tailor
102943,Chez Panisse,Berkeley,USA,37.879715,-122.26893,-1,4,Californian,https://axwwgrkdco.cloudimg.io/v7/__gmpics3__/86bb17507a914f69b871477cfd2a53ee.jpeg,https://guide.michelin.com/us/en/california/berkeley/restaurant/chez-panisse
102879,Osteria Mozza,Los Angeles,USA,34.0834246,-118.3386857,1,4,Italian,https://axwwgrkdco.cloudimg.io/v7/__gmpics3__/1850794933fc4959a5a358155efc5304.jpg,https://guide.michelin.com/us/en/california/us-los-angeles/restaurant/osteria-mozza
102843,Chi Spacca,Los Angeles,USA,34.08342,-118.339096,-1,4,Italian,https://axwwgrkdco.cloudimg.io/v7/__gmpics3__/789ae33c20844dd2ac07e882c424a3d0.jpeg,https://guide.michelin.com/us/en/california/us-los-angeles/restaurant/chi-spacca
102840,Atelier Crenn,San Francisco,USA,37.79835,-122.43586,3,4,Contemporary,https://axwwgrkdco.cloudimg.io/v7/__gmpics3__/e025157e485d4513bd72acdb3763f681.jpg,https://guide.michelin.com/us/en/california/san-francisco/restaurant/atelier-crenn
102811,The French Laundry,Yountville,USA,38.40443,-122.36474,3,4,Contemporary,https://axwwgrkdco.cloudimg.io/v7/__gmpics3__/4f9889f5d434494da7e8e162a9d50d5f.jpg,https://guide.michelin.com/us/en/california/yountville/restaurant/the-french-laundry
102762,Pomet,Oakland,USA,37.8259318,-122.2530358,-1,3,Californian,https://axwwgrkdco.cloudimg.io/v7/__gmpics3__/c77b95f6c5c7419f9648f569f41ce965.jpg,https://guide.michelin.com/us/en/california/oakland/restaurant/pomet
102732,Vespertine,Culver City,USA,34.024204,-118.38166,2,4,Contemporary,https://axwwgrkdco.cloudimg.io/v7/__gmpics3__/09830c0558c740af8e5af04d12dbcabf.jpeg,https://guide.michelin.com/us/en/california/culver-city/restaurant/vespertine
102721,Le Comptoir at Bar Crenn,San Francisco,USA,37.798435,-122.43581,1,4,Contemporary,https://axwwgrkdco.cloudimg.io/v7/__gmpics3__/b646470a8cb44bd1ba182cc5c58947f3.jpeg,https://guide.michelin.com/us/en/california/san-francisco/restaurant/bar-crenn
102709,Providence,Hollywood,USA,34.083576,-118.3301829,2,4,Seafood,https://axwwgrkdco.cloudimg.io/v7/__gmpics3__/37ef704b507d417b8b9eec6eb16eccf6.jpeg,https://guide.michelin.com/us/en/california/hollywood/restaurant/providence
102680,Caruso's,Montecito,USA,34.4200948,-119.6257156,1,4,Californian,https://axwwgrkdco.cloudimg.io/v7/__gmpics3__/4dd84ee971d545c4ac5f5ea07feae375.jpeg,https://guide.michelin.com/us/en/california/montecito/restaurant/caruso-s
102658,Heritage,Long Beach,USA,33.775291,-118.1667769,1,4,Californian,https://axwwgrkdco.cloudimg.io/v7/__gmpics3__/9091dd43be6e47f790ff5b2321af5e33.jpeg,https://guide.michelin.com/us/en/california/long-beach/restaurant/heritage-1196790
102596,Quince,San Francisco,USA,37.7975054,-122.4032607,3,4,Contemporary,https://axwwgrkdco.cloudimg.io/v7/__gmpics3__/37f0fbbe6ade4d30929b333a1068ab49.jpeg,https://guide.michelin.com/us/en/california/san-francisco/restaurant/quince
102578,SingleThread,Healdsburg,USA,38.6122599,-122.8697229,3,4,Contemporary,https://axwwgrkdco.cloudimg.io/v7/__gmpics3__/632c5b8f661242bb98a803bfeb2e7b7a.jpg,https://guide.michelin.com/us/en/california/healdsburg/restaurant/singlethread
102516,Aphotic,San Francisco,USA,37.7816766,-122.401688,1,4,Seafood,https://axwwgrkdco.cloudimg.io/v7/__gmpics3__/9398fe43c1fa4bcfaf80bb5853542e0a.jpeg,https://guide.michelin.com/us/en/california/san-francisco/restaurant/aphotic
102449,Harbor House,Elk,USA,39.1355655,-123.7190639,2,4,Californian,https://axwwgrkdco.cloudimg.io/v7/__gmpics3__/00901b19dc514d22970c054eaf6735e3.jpeg,https://guide.michelin.com/us/en/california/elk/restaurant/harbor-house
102430,The Restaurant at JUSTIN,Paso Robles,USA,35.6563869,-120.9113324,1,4,Californian,https://axwwgrkdco.cloudimg.io/v7/__gmpics3__/792020ac572b4ea6973a78a1cc70e221.jpg,https://guide.michelin.com/us/en/california/paso-robles/restaurant/the-restaurant-at-justin
100303,Kaya,Orlando,USA,28.5520757,-81.365581,-1,4,Filipino,https://axwwgrkdco.cloudimg.io/v7/__gmpics3__/f06286b4466e46428d423c017f3049f2.jpg,https://guide.michelin.com/us/en/florida/orlando/restaurant/kaya
100230,Krüs Kitchen,Miami,USA,25.7276394,-80.2426489,-1,3,Contemporary,https://axwwgrkdco.cloudimg.io/v7/__gmpics3__/7319d166d7d24801b0e310d572c95320.jpeg,https://guide.michelin.com/us/en/florida/miami/restaurant/krus-kitchen
100229,Los Félix,Miami,USA,25.7276768,-80.2428184,1,3,Mexican,https://axwwgrkdco.cloudimg.io/v7/__gmpics3__/dc406a4b2743488ebbcd0e98707ac2a0.jpg,https://guide.michelin.com/us/en/florida/miami/restaurant/los-felix
110856,Graefl Major Kétútköz,Poroszló,Hungary,47.671505,20.5940024,-1,2,Traditional Cuisine,https://axwwgrkdco.cloudimg.io/v7/__gmpics3__/cb030465d88b4266a4d3218b7e60cf53.jpeg,https://guide.michelin.com/us/en/heves/poroszlo/restaurant/graefl-major-ketutkoz
110842,Salt,Budapest,Hungary,47.4904,19.05914,1,4,Modern Cuisine,https://axwwgrkdco.cloudimg.io/v7/__gmpics3__/61c8f0835b7d441e9f0dd117f143eb1b.jpeg,https://guide.michelin.com/us/en/central-hungary/budapest/restaurant/salt-1196768
110832,Villa Kabala,Szigliget,Hungary,46.7921018,17.4421538,-1,3,Modern Cuisine,https://axwwgrkdco.cloudimg.io/v7/__gmpics3__/82291f2780de4adf9ae9c24fde6ac448.jpg,https://guide.michelin.com/us/en/veszprem-region/szigliget/restaurant/villa-kabala
110817,Natura Hill,Zebegény,Hungary,47.8193493,18.9015739,-1,3,Modern Cuisine,https://axwwgrkdco.cloudimg.io/v7/__gmpics3__/cb8158a9dbd1426d9ca7a527469dfb88.png,https://guide.michelin.com/us/en/pest/zebegeny/restaurant/natura-hill
110800,Onyx Mühely,Budapest,Hungary,47.497359,19.0506074,-1,4,Modern Cuisine,https://axwwgrkdco.cloudimg.io/v7/__gmpics3__/66da2ed5228a4bbf888e4598f033368d.jpg,https://guide.michelin.com/us/en/central-hungary/budapest/restaurant/onyx-muhely
110156,Agora Pansiyon,Milas,Türkiye,37.5014068,27.5262707,0,2,Turkish,https://axwwgrkdco.cloudimg.io/v7/__gmpics3__/f3737992f0954b2abcdcd6ddc519192b.jpeg,https://guide.michelin.com/us/en/mugla/milas_2807963/restaurant/agora-pansiyon
110133,Asma Yaprağı,Izmir,Türkiye,38.2745103,26.3626264,0,2,Traditional Cuisine,https://axwwgrkdco.cloudimg.io/v7/__gmpics3__/21a97fee74c04364a8041ba8d620ca6b.jpeg,https://guide.michelin.com/us/en/izmir/izmir_2809416/restaurant/asma%C2%A0yaprag%C4%B1
110113,Vino Locale,Izmir,Türkiye,38.2812922,26.7467516,1,3,Country cooking,https://axwwgrkdco.cloudimg.io/v7/__gmpics3__/4bc06fd3b87f4a48aa265d43439278c4.jpeg,https://guide.michelin.com/us/en/izmir/izmir_2809416/restaurant/vino-locale
110101,Hiç Lokanta,Izmir,Türkiye,38.3221752,26.7649481,0,1,Organic,https://axwwgrkdco.cloudimg.io/v7/__gmpics3__/3cc1a4ff88c34526afe465dbb6d56e73.jpeg,https://guide.michelin.com/us/en/izmir/izmir_2809416/restaurant/hic-lokanta
110069,The BARN,Istanbul,Türkiye,41.1363013,28.2804425,-1,3,Regional European,https://axwwgrkdco.cloudimg.io/v7/__gmpics3__/4d1da32afe8b457daceb62b6f0ffbe5c.jpeg,https://guide.michelin.com/us/en/istanbul-province/istanbul/restaurant/the-barn-1215529
110070,Neolokal,Istanbul,Türkiye,41.0239621,28.973378,1,4,Turkish,https://axwwgrkdco.cloudimg.io/v7/__gmpics3__/4e48b22b17e5480f8066d416dc025a2d.jpg,https://guide.michelin.com/us/en/istanbul-province/istanbul/restaurant/neolokal
110066,telezzüz,Istanbul,Türkiye,41.0274506,29.0422078,-1,4,Vegan,https://axwwgrkdco.cloudimg.io/v7/__gmpics3__/18cf53aab1e84937bd24c3fcb3a014d6.jpg,https://guide.michelin.com/us/en/istanbul-province/istanbul/restaurant/telezzuz
110048,Mezra Yalıkavak,Bodrum,Türkiye,37.1149719,27.3254393,-1,4,Farm to table,https://axwwgrkdco.cloudimg.io/v7/__gmpics3__/edfa4306d6a64318a3a62ea4c7eb789f.jpg,https://guide.michelin.com/us/en/mugla/bodrum_2806351/restaurant/mezra-yal%C4%B1kavak
110030,OD Urla,Izmir,Türkiye,38.344805,26.7622838,1,3,Creative French,https://axwwgrkdco.cloudimg.io/v7/__gmpics3__/976ad2db04494840baf2f128945421dd.jpg,https://guide.michelin.com/us/en/izmir/izmir_2809416/restaurant/od-urla
110031,Casa Lavanda,Istanbul,Türkiye,41.0871196,29.5117319,1,3,Traditional Cuisine,https://axwwgrkdco.cloudimg.io/v7/__gmpics3__/8c5c0a0ff6084d508e40615f44ddcb48.jpg,https://guide.michelin.com/us/en/istanbul-province/istanbul/restaurant/casa-lavanda
109881,PRU,Phuket,Thailand,8.0384939,98.2765202,1,4,Modern Cuisine,https://axwwgrkdco.cloudimg.io/v7/__gmpics3__/065366c589a040eaa87db2280fdd664b.jpeg,https://guide.michelin.com/us/en/phuket-region/phuket/restaurant/pru
109869,Baan Tepa,Bangkok,Thailand,13.75155,100.60551,2,4,Thai contemporary,https://axwwgrkdco.cloudimg.io/v7/__gmpics3__/3bb83d2120c34c9a9ace72a705cf4532.jpeg,https://guide.michelin.com/us/en/bangkok-region/bangkok/restaurant/baan-tepa
109782,Haoma,Bangkok,Thailand,13.7435066,100.5676933,1,4,Indian,https://axwwgrkdco.cloudimg.io/v7/__gmpics3__/6b52dae432d54398aa4f8a8d2192ff68.jpg,https://guide.michelin.com/us/en/bangkok-region/bangkok/restaurant/haoma
109545,Jampa,Phuket,Thailand,8.0396599,98.3173679,-1,3,European Contemporary,https://axwwgrkdco.cloudimg.io/v7/__gmpics3__/8dd4d4e16b534d9cb585d602e58982c1.jpg,https://guide.michelin.com/us/en/phuket-region/phuket/restaurant/jampa
109432,O Secadeiro,Serra de Outes,España,42.8876277,-8.8968902,-1,2,Farm to table,https://axwwgrkdco.cloudimg.io/v7/__gmpics3__/7af837f086a346bbb36ad17aae279a31.jpeg,https://guide.michelin.com/us/en/galicia/serra-de-outes/restaurant/o-secadeiro
109405,Els Casals,Sagàs,España,42.0325482,1.9605884,1,3,Catalan,https://axwwgrkdco.cloudimg.io/v7/__gmpics3__/dd4aacec2ce243d19329827a4e71a174.jpeg,https://guide.michelin.com/us/en/catalunya/sagas/restaurant/els-casals
109389,Refectorio,Sardón de Duero,España,41.6156187,-4.4106521,1,4,Creative,https://axwwgrkdco.cloudimg.io/v7/__gmpics3__/9a5139891054419aaa8ebc1b6cb2483d.jpeg,https://guide.michelin.com/us/en/castilla-y-leon/sardon-de-duero/restaurant/refectorio
109364,Taller Arzuaga,Quintanilla de Onésimo,España,41.6280676,-4.3237821,1,3,Creative,https://axwwgrkdco.cloudimg.io/v7/__gmpics3__/4fcb0b8f818342edb8f3097ea4bb9ee9.jpeg,https://guide.michelin.com/us/en/castilla-y-leon/quintanilla-de-onesimo/restaurant/taller
109308,Bistrot 1965,Castelló d'Empúries,España,42.255818,3.0761205,0,2,Traditional Cuisine,https://axwwgrkdco.cloudimg.io/v7/__gmpics3__/4a48eb0204564e22954b46ae120be264.jpeg,https://guide.michelin.com/us/en/catalunya/castello-d-empuries/restaurant/bistrot-1965
109301,Azurmendi,Larrabetzu,España,43.26065,-2.81454,3,4,Creative,https://axwwgrkdco.cloudimg.io/v7/__gmpics3__/4ece90ae50674a249c98af3fc54572ab.jpeg,https://guide.michelin.com/us/en/pais-vasco/larrabetzu/restaurant/azurmendi
109289,Aponiente,El Puerto de Santa María,España,36.6033273,-6.2164435,3,4,Creative,https://axwwgrkdco.cloudimg.io/v7/__gmpics3__/c537480284b14f25ad39e888bb3f2879.jpg,https://guide.michelin.com/us/en/andalucia/el-puerto-de-santa-maria/restaurant/aponiente
109280,Casa Nova,Sant Martí Sarroca,España,41.3555907,1.6415855,1,4,Modern Cuisine,https://axwwgrkdco.cloudimg.io/v7/__gmpics3__/e46f8776f4d6482394c4a0931c3f3e97.jpg,https://guide.michelin.com/us/en/catalunya/sant-marti-sarroca/restaurant/casa-nova
109265,Monte,San Feliz,España,43.1685435,-5.8225128,1,3,Modern Cuisine,https://axwwgrkdco.cloudimg.io/v7/__gmpics3__/ac6d415807454fb8889f8670b2ff19f6.jpg,https://guide.michelin.com/us/en/principado-de-asturias/san-feliz/restaurant/monte-1190765
109241,ARREA!,Santa Cruz de Campezo,España,42.6692746,-2.3497835,1,4,Regional Cuisine,https://axwwgrkdco.cloudimg.io/v7/__gmpics3__/58d15273fd9c46298b9ef3795eb6833c.jpg,https://guide.michelin.com/us/en/pais-vasco/santa-cruz-de-campezo/restaurant/arrea
109214,Narbasu,Cereceda,España,43.3860873,-5.269812,-1,2,Country cooking,https://axwwgrkdco.cloudimg.io/v7/__gmpics3__/06fb902c9ddf4bcf8a3e1178287456b4.jpg,https://guide.michelin.com/us/en/principado-de-asturias/cereceda/restaurant/narbasu
109205,El Molino de Alcuneza,Sigüenza,España,41.1055995,-2.6044708,1,3,Modern Cuisine,https://axwwgrkdco.cloudimg.io/v7/__gmpics3__/650efd0dd4034be1ac044804150e2d0a.jpeg,https://guide.michelin.com/us/en/castilla-la-mancha/siguenza/restaurant/el-molino-de-alcuneza
109201,Finca Alfoliz,Aljaraque,España,37.2935619,-7.044933,0,2,Traditional Cuisine,https://axwwgrkdco.cloudimg.io/v7/__gmpics3__/606d44a95415463c863f5550e66e337e.jpeg,https://guide.michelin.com/us/en/andalucia/aljaraque/restaurant/finca-alfoliz
109195,Espacio Amunt,Ulldecona,España,40.6110033,0.3310067,0,2,Traditional Cuisine,https://axwwgrkdco.cloudimg.io/v7/__gmpics3__/42cb4ffc99ae48fcb46f74a6827f10c3.jpg,https://guide.michelin.com/us/en/catalunya/ulldecona/restaurant/espacio-amunt
109171,Sollo,Fuengirola,España,36.5809892,-4.5956774,1,4,Creative,https://axwwgrkdco.cloudimg.io/v7/__gmpics3__/f017c60c23bc45aabce874d8120dffff.jpg,https://guide.michelin.com/us/en/andalucia/fuengirola/restaurant/sollo
109143,Oba-,Casas-Ibáñez,España,39.2873133,-1.4694894,1,4,Creative,https://axwwgrkdco.cloudimg.io/v7/__gmpics3__/394ea3f05e3e4c8794d5f73a630db2dc.jpeg,https://guide.michelin.com/us/en/castilla-la-mancha/casas-ibanez/restaurant/oba
109113,Ricard Camarena,Valencia,España,39.48512,-0.3852003,2,4,Creative,https://axwwgrkdco.cloudimg.io/v7/__gmpics3__/b5fb44c973734685a5281dbe39a009a7.jpg,https://guide.michelin.com/us/en/comunidad-valenciana/valencia/restaurant/ricard-camarena
109111,L'Antic Molí,Ulldecona,España,40.611132,0.3306029,1,3,Modern Cuisine,https://axwwgrkdco.cloudimg.io/v7/__gmpics3__/cc1711f33b2a46c9832b2600ee6a0f17.jpg,https://guide.michelin.com/us/en/catalunya/ulldecona/restaurant/l-antic-moli
109052,El Invernadero,Madrid,España,40.4446541,-3.6989277,1,4,Vegetarian,https://axwwgrkdco.cloudimg.io/v7/__gmpics3__/6b942ce2fd1b4d3e966665f73ab0c5ac.jpeg,https://guide.michelin.com/us/en/comunidad-de-madrid/madrid/restaurant/el-invernadero
109017,Coque,Madrid,España,40.430643,-3.690676,2,4,Creative,https://axwwgrkdco.cloudimg.io/v7/__gmpics3__/cfffdf8b5efb44bdbeaf671aabd04b5f.jpeg,https://guide.michelin.com/us/en/comunidad-de-madrid/madrid/restaurant/coque
109005,Hábitat Cigüeña Negra,Valverde del Fresno,España,40.1948649,-6.8822564,-1,2,Meats and Grills,https://axwwgrkdco.cloudimg.io/v7/__gmpics3__/84e4c4f5abe84303926134b0402a9f41.jpeg,https://guide.michelin.com/us/en/extremadura/valverde-del-fresno_1448407/restaurant/habitat-ciguena-negra
108985,Muxgo,Las Palmas de Gran Canaria,España,28.1219882,-15.4279542,1,4,Creative,https://axwwgrkdco.cloudimg.io/v7/__gmpics3__/ad4345949e2d431db85c1f0ef3d9811e.jpeg,https://guide.michelin.com/us/en/canarias/las-palmas-de-gran-canaria/restaurant/muxgo
108885,Cenador de Amós,Villaverde de Pontones,España,43.4124884,-3.6988243,3,4,Modern Cuisine,https://axwwgrkdco.cloudimg.io/v7/__gmpics3__/7ed1a32867e5480ab5a335faccfc6685.jpg,https://guide.michelin.com/us/en/cantabria/villaverde-de-pontones/restaurant/cenador-de-amos
108869,Les Moles,Ulldecona,España,40.602104,0.427955,1,3,Modern Cuisine,https://axwwgrkdco.cloudimg.io/v7/__gmpics3__/2f17f2db12d84b9ca883691df2e7a105.jpg,https://guide.michelin.com/us/en/catalunya/ulldecona/restaurant/les-moles
108851,Emporium,Castelló d'Empúries,España,42.2558205,3.0760903,1,3,Contemporary,https://axwwgrkdco.cloudimg.io/v7/__gmpics3__/5b172b3a6fd143a5a46dafdfae47fd5b.jpg,https://guide.michelin.com/us/en/catalunya/castello-d-empuries/restaurant/emporium
108839,Ambivium,Peñafiel,España,41.5946148,-4.0875496,1,4,Modern Cuisine,https://axwwgrkdco.cloudimg.io/v7/__gmpics3__/c39b534fb9c045aa8c72f79a6385e6be.jpeg,https://guide.michelin.com/us/en/castilla-y-leon/penafiel/restaurant/ambivium
108825,O Balado,Boqueixón,España,42.798046,-8.403248,0,2,Traditional Cuisine,https://axwwgrkdco.cloudimg.io/v7/__gmpics3__/291d158a7e62457dbc7ffe4532694869.jpeg,https://guide.michelin.com/us/en/galicia/boqueixon-(san-vicente)_1429274/restaurant/o-balado
108824,Es Tragón,Sant Antoni de Portmany,España,38.9967311,1.2867365,1,4,Creative,https://axwwgrkdco.cloudimg.io/v7/__gmpics3__/20583cbfc19e47fc963c63fb3f172d99.jpeg,https://guide.michelin.com/us/en/islas-baleares/sant-antoni-de-portmany/restaurant/es-tragon
108812,Ca Na Toneta,Caimari,España,39.7713338,2.9022032,-1,3,Regional Cuisine,https://axwwgrkdco.cloudimg.io/v7/__gmpics3__/936ab6850e8c41c6a97703d73398833e.jpg,https://guide.michelin.com/us/en/islas-baleares/caimari/restaurant/ca-na-toneta
108801,Zelai Txiki,Donostia / San Sebastián,España,43.3247005,-1.9643795,-1,3,Traditional Cuisine,https://axwwgrkdco.cloudimg.io/v7/__gmpics3__/56eaa08eaa364d87b69d1094de7b55e8.jpg,https://guide.michelin.com/us/en/pais-vasco/es-donostia-san-sebastian/restaurant/zelai-txiki
108796,Casa Marcial,Arriondas,España,43.4184082,-5.1931556,3,4,Creative,https://axwwgrkdco.cloudimg.io/v7/__gmpics3__/e6d451d12f594c18b739a52e1032c739.jpg,https://guide.michelin.com/us/en/principado-de-asturias/arriondas/restaurant/casa-marcial
108770,El Visco,Fuentespalda,España,40.8586469,0.0766469,-1,3,Seasonal Cuisine,https://axwwgrkdco.cloudimg.io/v7/__gmpics3__/374b9f5dd1634666a795f5aafbfd4bf2.jpg,https://guide.michelin.com/us/en/aragon/fuentespalda/restaurant/el-visco
108743,Pepe Vieira,Raxó,España,42.40942,-8.75447,2,4,Creative,https://axwwgrkdco.cloudimg.io/v7/__gmpics3__/7d982f66c8e341b281273bacd91df1d9.jpg,https://guide.michelin.com/us/en/galicia/raxo-(san-gregorio)_1412090/restaurant/pepe-vieira
108699,Barro,Ávila,España,40.6577005,-4.709749,1,4,Creative,https://axwwgrkdco.cloudimg.io/v7/__gmpics3__/f224b1123c4d4e3bb88e286500566f61.jpeg,https://guide.michelin.com/us/en/castilla-y-leon/avila/restaurant/barro
108692,Cancook,Saragossa,España,41.6471441,-0.8804518,1,4,Creative,https://axwwgrkdco.cloudimg.io/v7/__gmpics3__/a70a197ddfa34efda0d42a2988a65d95.jpg,https://guide.michelin.com/us/en/aragon/zaragoza/restaurant/cancook
108688,El Celler de Can Roca,Girona,España,41.9932026,2.807927,3,4,Creative,https://axwwgrkdco.cloudimg.io/v7/__gmpics3__/a0430548b8f945aca3b20a54427390c2.jpg,https://guide.michelin.com/us/en/catalunya/girona/restaurant/el-celler-de-can-roca
108664,Maca de Castro,Port d'Alcúdia,España,39.8343,3.11829,1,4,Creative,https://axwwgrkdco.cloudimg.io/v7/__gmpics3__/f72506f23253457cb7b317ec03484230.jpg,https://guide.michelin.com/us/en/islas-baleares/port-d-alcdia/restaurant/maca-de-castro
108622,El Molino de Urdániz,Urdaitz,España,42.909132,-1.533913,2,4,Creative,https://axwwgrkdco.cloudimg.io/v7/__gmpics3__/6aa33d2ebea4401599c3c1a14c3b7a9a.jpeg,https://guide.michelin.com/us/en/comunidad-foral-de-navarra/urdaitz/restaurant/el-molino-de-urdaniz
108609,L'Algadir del Delta,Amposta,España,40.646976,0.6878907,0,2,Traditional Cuisine,https://axwwgrkdco.cloudimg.io/v7/__gmpics3__/8cc278b6c6e64762b289095e82f1eb0a.jpg,https://guide.michelin.com/us/en/catalunya/amposta/restaurant/l-algadir
108542,DSTAgE,Madrid,España,40.4246847,-3.6962925,2,4,Creative,https://axwwgrkdco.cloudimg.io/v7/__gmpics3__/80a54923f6914601967c6add1e66beb0.jpg,https://guide.michelin.com/us/en/comunidad-de-madrid/madrid/restaurant/dstage
108504,Cal Paradís,Vall d'Alba,España,40.1767144,-0.0339761,1,3,Contemporary,https://axwwgrkdco.cloudimg.io/v7/__gmpics3__/e30315dfbf5c4291b1f9d5f4b5453633.jpeg,https://guide.michelin.com/us/en/comunidad-valenciana/vall-d-alba/restaurant/cal-paradis
108484,La Boscana,Bellvís,España,41.66112,0.8093196,1,4,Creative,https://axwwgrkdco.cloudimg.io/v7/__gmpics3__/6043383489204daf949f6ccd9de8a9a7.jpeg,https://guide.michelin.com/us/en/catalunya/bellvis/restaurant/la-boscana
108448,Venta Moncalvillo,Daroca de Rioja,España,42.3715602,-2.5805894,2,4,Modern Cuisine,https://axwwgrkdco.cloudimg.io/v7/__gmpics3__/0e9ce2f57c4043228cedd5e3ac4c612c.jpg,https://guide.michelin.com/us/en/la-rioja/daroca-de-rioja/restaurant/venta-moncalvillo
108421,Béns d'Avall,Sóller,España,39.7766578,2.6665427,1,4,Contemporary,https://axwwgrkdco.cloudimg.io/v7/__gmpics3__/334034c730ed40a3a52855218c766ba3.jpg,https://guide.michelin.com/us/en/islas-baleares/soller/restaurant/bens-d-avall
108390,Cocina Hermanos Torres,Barcelona,España,41.3865273,2.1400168,3,4,Creative,https://axwwgrkdco.cloudimg.io/v7/__gmpics3__/efa00beced0942519621a2f649eff1a8.jpeg,https://guide.michelin.com/us/en/catalunya/barcelona/restaurant/cocina-hermanos-torres
108374,Restaurante 1497,Vallromanes,España,41.5277571,2.3110242,-1,3,Contemporary,https://axwwgrkdco.cloudimg.io/v7/__gmpics3__/6b9793f72e654b5997ea34593508dce6.jpeg,https://guide.michelin.com/us/en/catalunya/vallromanes/restaurant/restaurante-1497
108368,Eneko,Larrabetzu,España,43.26056,-2.8142767,1,3,Creative,https://axwwgrkdco.cloudimg.io/v7/__gmpics3__/a146594146ba4ab48b3be16c05e45ba6.jpeg,https://guide.michelin.com/us/en/pais-vasco/larrabetzu/restaurant/eneko
108360,Andreu Genestra,Llucmajor,España,39.4374288,2.8000239,1,4,Creative,https://axwwgrkdco.cloudimg.io/v7/__gmpics3__/e6e9d7cccc56446f9d0afb29183d8a2b.jpeg,https://guide.michelin.com/us/en/islas-baleares/llucmajor/restaurant/andreu-genestra-1208507
108302,Les Cols,Olot,España,42.1946503,2.5009,2,4,Creative,https://axwwgrkdco.cloudimg.io/v7/__gmpics3__/849e624893124661819faa3acabe4adb.jpg,https://guide.michelin.com/us/en/catalunya/olot/restaurant/les-cols
108293,Lera,Castroverde de Campos,España,41.967639,-5.3137839,1,4,Regional Cuisine,https://axwwgrkdco.cloudimg.io/v7/__gmpics3__/653164ac70f54fe7bcef50d852b2fd9e.jpeg,https://guide.michelin.com/us/en/castilla-y-leon/castroverde-de-campos/restaurant/lera
108267,Casona del Judío,Santander,España,43.4686232,-3.8292585,1,4,Modern Cuisine,https://axwwgrkdco.cloudimg.io/v7/__gmpics3__/079f53715a2b48108dd8006bab5070fe.jpg,https://guide.michelin.com/us/en/cantabria/santander/restaurant/casona-del-judio
108258,Culler de Pau,O Grove,España,42.4752854,-8.8957637,2,4,Creative,https://axwwgrkdco.cloudimg.io/v7/__gmpics3__/f48abe4d4cdb4be18328462e623ff812.jpg,https://guide.michelin.com/us/en/galicia/o-grove/restaurant/culler-de-pau
108254,La Botica de Matapozuelos,Matapozuelos,España,41.4143484,-4.7914841,1,3,Contemporary,https://axwwgrkdco.cloudimg.io/v7/__gmpics3__/166b80cce02d476280deac3e9ff89bb9.jpeg,https://guide.michelin.com/us/en/castilla-y-leon/matapozuelos/restaurant/la-botica
108234,Somiatruites,Igualada,España,41.57798,1.614032,0,1,Contemporary,https://axwwgrkdco.cloudimg.io/v7/__gmpics3__/3ec1e259e462447a84bd350cd92e9d41.jpeg,https://guide.michelin.com/us/en/catalunya/igualada/restaurant/somiatruites
108227,Maskarada,Lekunberri,España,43.01121,-1.90254,0,1,Pork,https://axwwgrkdco.cloudimg.io/v7/__gmpics3__/a04e0290ffca4a34b8da80de5f017bcc.jpeg,https://guide.michelin.com/us/en/comunidad-foral-de-navarra/lekunberri/restaurant/maskarada
108224,Lluerna,Santa Coloma de Gramenet,España,41.4554734,2.2065622,1,3,Modern Cuisine,https://axwwgrkdco.cloudimg.io/v7/__gmpics3__/0ed723da4aab44338504c429150f8a34.jpg,https://guide.michelin.com/us/en/catalunya/santa-coloma-de-gramenet/restaurant/lluerna
108204,Tramo,Madrid,España,40.4481497,-3.6754617,-1,2,Contemporary,https://axwwgrkdco.cloudimg.io/v7/__gmpics3__/cc8ee438be6342019d6e8e72bffa26bb.jpg,https://guide.michelin.com/us/en/comunidad-de-madrid/madrid/restaurant/tramo
108031,Taian Table,Shanghai,Shanghai,31.221807,121.474049,3,4,Innovative,https://axwwgrkdco.cloudimg.io/v7/__gmpics3__/20c29762dc004da6865e1cf2ed09a818.jpg,https://guide.michelin.com/us/en/shanghai-municipality/shanghai/restaurant/taian-table
107888,Dewakan,Kuala Lumpur,Malaysia,3.1546497,101.7185414,2,3,Malaysian,https://axwwgrkdco.cloudimg.io/v7/__gmpics3__/e80d3088e65d47d4a8f28c823b085e9f.jpg,https://guide.michelin.com/us/en/kuala-lumpur-region/kuala-lumpur/restaurant/dewakan
107604,Dalla Gioconda,Gabicce Monte,Italia,43.963886,12.7725315,1,3,Country cooking,https://axwwgrkdco.cloudimg.io/v7/__gmpics3__/d8f3505d1e7a42588028bf989857494e.jpg,https://guide.michelin.com/us/en/marche/gabicce-monte/restaurant/dalla-gioconda
107584,Artifex,Brennero,Italia,46.9646182,11.3458131,-1,3,Contemporary,https://axwwgrkdco.cloudimg.io/v7/__gmpics3__/efe75b3acf83453780de72921a7780df.jpeg,https://guide.michelin.com/us/en/trentino-alto-adige/brennero_1812096/restaurant/artifex
107581,Agriturismo Ferdy,Lenna,Italia,45.9246206,9.669272,-1,3,Regional Cuisine,https://axwwgrkdco.cloudimg.io/v7/__gmpics3__/bf6f5a9671434edab1a516022fbe6449.jpeg,https://guide.michelin.com/us/en/lombardia/lenna_1806857/restaurant/agriturismo-ferdy
107580,Il Mirto,Forio,Italia,40.7531204,13.8789992,-1,4,Vegetarian,https://axwwgrkdco.cloudimg.io/v7/__gmpics3__/441ab36d133e4b1eb6ca1591d80222db.jpg,https://guide.michelin.com/us/en/campania/forio/restaurant/il-mirto
107550,Coltivare,La Morra,Italia,44.6392382,7.9089221,-1,3,Piedmontese,https://axwwgrkdco.cloudimg.io/v7/__gmpics3__/3a7f94d729ab4784a6c545fba6a08279.jpeg,https://guide.michelin.com/us/en/piemonte/la-morra/restaurant/coltivare
107487,l' Ciocio - Osteria di Suvereto,Suvereto,Italia,43.07921,10.67901,-1,2,Modern Cuisine,https://axwwgrkdco.cloudimg.io/v7/__gmpics3__/69347c53b2634f8d9229c1783f63e090.jpeg,https://guide.michelin.com/us/en/toscana/suvereto/restaurant/i-ciocio-osteria-di-suvereto
107468,Casa Format,Orbassano,Italia,45.002438,7.5737295,-1,2,Modern Cuisine,https://axwwgrkdco.cloudimg.io/v7/__gmpics3__/a0d4098940d24c5c97961fc062689081.jpeg,https://guide.michelin.com/us/en/piemonte/orbassano/restaurant/casa-format
107405,Vespasia,Norcia,Italia,42.7925634,13.0920268,1,4,Umbrian,https://axwwgrkdco.cloudimg.io/v7/__gmpics3__/a30d30923c8744238d35d8ee24212e71.jpeg,https://guide.michelin.com/us/en/umbria/norcia/restaurant/vespasia
107339,Prezioso,Merano,Italia,46.642062,11.1910522,1,4,Alpine,https://axwwgrkdco.cloudimg.io/v7/__gmpics3__/0a04f65db0584a168088040ab9f2e0dc.jpg,https://guide.michelin.com/us/en/trentino-alto-adige/merano/restaurant/prezioso
107329,Il Tiglio,Montemonaco,Italia,42.9182376,13.316814,1,3,Contemporary,https://axwwgrkdco.cloudimg.io/v7/__gmpics3__/72fa7ca24a1b421787d0a3b2a2d2000f.jpg,https://guide.michelin.com/us/en/marche/montemonaco/restaurant/il-tiglio
107297,Il Cantinone e Sport Hotel Alpina,Madesimo,Italia,46.44052,9.35916,1,3,Contemporary,https://axwwgrkdco.cloudimg.io/v7/__gmpics3__/22e0186b5cdd4e6f8bd3fae28b37cdd8.jpg,https://guide.michelin.com/us/en/lombardia/madesimo/restaurant/il-cantinone-e-sport-hotel-alpina
107270,Il Cappero,Isola Vulcano,Italia,38.4308153,14.9570928,1,4,Mediterranean Cuisine,https://axwwgrkdco.cloudimg.io/v7/__gmpics3__/18b00ce4f0644e13af5053b5c7d40e6d.jpeg,https://guide.michelin.com/us/en/sicilia/isola-vulcano/restaurant/il-cappero
107261,La Tana Gourmet,Asiago,Italia,45.85289,11.49528,1,4,Creative,https://axwwgrkdco.cloudimg.io/v7/__gmpics3__/7df2af565a3c47caa6207f10662171cf.jpg,https://guide.michelin.com/us/en/veneto/asiago/restaurant/la-tana-gourmet
107210,Joia,Milan,Italia,45.4772538,9.2016981,1,4,Vegetarian,https://axwwgrkdco.cloudimg.io/v7/__gmpics3__/31d6a3116b7a46c8a9aceb5e7afbda17.jpeg,https://guide.michelin.com/us/en/lombardia/milano/restaurant/joia
107193,Saporium Firenze,Florence,Italia,43.7646,11.2659859,1,4,Creative,https://axwwgrkdco.cloudimg.io/v7/__gmpics3__/ee3393c4f542425f88f17c9c0686e40d.jpg,https://guide.michelin.com/us/en/toscana/firenze/restaurant/saporium-firenze
107158,Osteria Borsò Gambrinus,San Polo di Piave,Italia,45.7968129,12.3885415,0,2,Venetian,https://axwwgrkdco.cloudimg.io/v7/__gmpics3__/b1bf6010f40745be8094f7e7e9b33e64.jpeg,https://guide.michelin.com/us/en/veneto/san-polo-di-piave/restaurant/osteria-enoteca-gambrinus
107151,Signum,Malfa,Italia,38.57992,14.83344,1,4,Sicilian,https://axwwgrkdco.cloudimg.io/v7/__gmpics3__/290cf6ec411a4a0da747b4b11dd832fb.jpeg,https://guide.michelin.com/us/en/sicilia/malfa/restaurant/signum
107125,Le Trabe,Paestum,Italia,40.4469187,15.0429487,1,4,Campanian,https://axwwgrkdco.cloudimg.io/v7/__gmpics3__/0eb398c177f14fc0b00c29aedd90a8ab.jpeg,https://guide.michelin.com/us/en/campania/paestum/restaurant/le-trabe
107114,Atelier Moessmer Norbert Niederkofler,Brunico,Italia,46.7927709,11.949283,3,4,Creative,https://axwwgrkdco.cloudimg.io/v7/__gmpics3__/fb915fae3a4f48fd9436bd79435f7a87.jpg,https://guide.michelin.com/us/en/trentino-alto-adige/brunico/restaurant/atelier-moessmer-norbert-niederkofler
107086,Lanterna Verde,Villa di Chiavenna,Italia,46.3284,9.49741,1,3,Country cooking,https://axwwgrkdco.cloudimg.io/v7/__gmpics3__/60e034436e084205a86eb45a07404b76.jpeg,https://guide.michelin.com/us/en/lombardia/villa-di-chiavenna/restaurant/lanterna-verde
107081,Mater Terrae,Rome,Italia,41.8998749,12.4721696,-1,4,Vegetarian,https://axwwgrkdco.cloudimg.io/v7/__gmpics3__/2a2c84c2d51045409bd1405ce2b77489.jpeg,https://guide.michelin.com/us/en/lazio/roma/restaurant/mater-terrae
107058,Villa Maiella,Guardiagrele,Italia,42.188822,14.2047054,1,3,Cuisine from Abruzzo,https://axwwgrkdco.cloudimg.io/v7/__gmpics3__/61b6ac22087c412ab88ffe229bb48e84.jpg,https://guide.michelin.com/us/en/abruzzo/guardiagrele/restaurant/villa-maiella
107053,Antica Locanda al Cervo - Landgasthof zum Hirschen,San Genesio Atesino,Italia,46.5340136,11.333222,0,2,Regional Cuisine,https://axwwgrkdco.cloudimg.io/v7/__gmpics3__/cfb033ceb3e84022999a0dac84d75ec7.jpeg,https://guide.michelin.com/us/en/trentino-alto-adige/san-genesio-atesino/restaurant/antica-locanda-al-cervo-landgasthof-zum-hirschen
106933,D.One Restaurant,Montepagano,Italia,42.6772065,13.9897625,1,3,Modern Cuisine,https://axwwgrkdco.cloudimg.io/v7/__gmpics3__/10e353ad5a4144d2ae1c388e6475a9bb.jpeg,https://guide.michelin.com/us/en/abruzzo/montepagano/restaurant/d-one-restaurant-diffuso
106912,La Preséf,Mantello,Italia,46.1505628,9.4898006,1,4,Creative,https://axwwgrkdco.cloudimg.io/v7/__gmpics3__/a173c9ba71d1455491bd1b70b8f5298b.jpg,https://guide.michelin.com/us/en/lombardia/mantello/restaurant/la-presef
106880,Oasis - Sapori Antichi,Vallesaccarda,Italia,41.0633639,15.251974,1,3,Campanian,https://axwwgrkdco.cloudimg.io/v7/__gmpics3__/fa58c952e7144de9890f52008f94f1e4.jpg,https://guide.michelin.com/us/en/campania/vallesaccarda/restaurant/oasis-sapori-antichi
106874,Venissa,Mazzorbo,Italia,45.4886784,12.4111088,1,4,Country cooking,https://axwwgrkdco.cloudimg.io/v7/__gmpics3__/0c1122ab86854210b18b79f7b3b5a259.jpg,https://guide.michelin.com/us/en/veneto/mazzorbo/restaurant/venissa
106849,Casamatta,Manduria,Italia,40.417763,17.599371,1,4,Modern Cuisine,https://axwwgrkdco.cloudimg.io/v7/__gmpics3__/4e5c704378d84a5197c50aa312e90ab5.jpg,https://guide.michelin.com/us/en/puglia/manduria/restaurant/casamatta
106841,Bistrot,Forte dei Marmi,Italia,43.9553929,10.1700005,1,4,Seafood,https://axwwgrkdco.cloudimg.io/v7/__gmpics3__/fc7825637f59414a86dccec30e2f5ff7.jpeg,https://guide.michelin.com/us/en/toscana/forte-dei-marmi/restaurant/bistrot
106803,La Bandiera,Civitella Casanova,Italia,42.3698762,13.9082843,1,3,Cuisine from Abruzzo,https://axwwgrkdco.cloudimg.io/v7/__gmpics3__/f4ae11b9020f4d1ea762ae0855d513e8.jpeg,https://guide.michelin.com/us/en/abruzzo/civitella-casanova/restaurant/la-bandiera
106795,Don Alfonso 1890,Sant'Agata sui Due Golfi,Italia,40.6078108,14.3737397,1,4,Creative,https://axwwgrkdco.cloudimg.io/v7/__gmpics3__/d5e995956ab64b4ea3fe4e57dc858da2.jpeg,https://guide.michelin.com/us/en/campania/sant--agata-sui-due-golfi/restaurant/don-alfonso-1890-151521
106748,Locanda La Raia,Gavi,Italia,44.71576,8.7983716,-1,2,Piedmontese,https://axwwgrkdco.cloudimg.io/v7/__gmpics3__/e12877e1287d434f94e8fcaa97c3500b.jpg,https://guide.michelin.com/us/en/piemonte/gavi/restaurant/locanda-la-raia
106747,Lokanda Devetak,Savogna d'Isonzo,Italia,45.8835521,13.5603995,0,2,Regional Cuisine,https://axwwgrkdco.cloudimg.io/v7/__gmpics3__/12632142a59a4ccaad62a22de76d77ac.jpeg,https://guide.michelin.com/us/en/friuli-venezia-giulia/savogna-d-isonzo/restaurant/lokanda-devetak
106712,Agritur El Mas,Moena,Italia,46.3835301,11.6620468,0,2,Regional Cuisine,https://axwwgrkdco.cloudimg.io/v7/__gmpics3__/3e3157b7b3ec4e62b7ff9dd7f1b142c7.jpeg,https://guide.michelin.com/us/en/trentino-alto-adige/moena/restaurant/agritur-el-mas
106658,Lerchner's In Runggen,Saint Lorenzen,Italia,46.7778091,11.8759349,0,2,South Tyrolean,https://axwwgrkdco.cloudimg.io/v7/__gmpics3__/eea7a35b32b5482fa08d3264ca7d5b77.jpeg,https://guide.michelin.com/us/en/trentino-alto-adige/san-lorenzo-di-sebato/restaurant/lerchner-s-in-runggen
106657,Horto,Milan,Italia,45.4661897,9.1875693,1,4,Modern Cuisine,https://axwwgrkdco.cloudimg.io/v7/__gmpics3__/7c351a4e71c5433ba2646ebb871b10f5.jpg,https://guide.michelin.com/us/en/lombardia/milano/restaurant/horto-1204821
106590,La Peca,Lonigo,Italia,45.3848934,11.3990641,2,4,Modern Cuisine,https://axwwgrkdco.cloudimg.io/v7/__gmpics3__/b823d4c4ea934ceaa2cdf2236a50c871.jpg,https://guide.michelin.com/us/en/veneto/lonigo/restaurant/la-peca
106550,PS Ristorante,Cerreto Guidi,Italia,43.74317,10.84993,-1,4,Contemporary,https://axwwgrkdco.cloudimg.io/v7/__gmpics3__/173a63f6c2b94ffd9753ce86dab7f5c3.jpeg,https://guide.michelin.com/us/en/toscana/cerreto-guidi/restaurant/ps-ristorante-1192505
106549,Ronchi Rò,Dolegna del Collio,Italia,46.0236284,13.4866949,0,2,Regional Cuisine,https://axwwgrkdco.cloudimg.io/v7/__gmpics3__/1a23228e8171456b94655a7d67794be7.jpg,https://guide.michelin.com/us/en/friuli-venezia-giulia/dolegna-del-collio/restaurant/ronchi-ro
106509,Il Piastrino,Pennabilli,Italia,43.82111,12.2645054,1,3,Country cooking,https://axwwgrkdco.cloudimg.io/v7/__gmpics3__/d7ed887ecb7b4c459e877af3fa13099e.jpg,https://guide.michelin.com/us/en/emilia-romagna/pennabilli/restaurant/il-piastrino
106482,SanBrite,Cortina d'Ampezzo,Italia,46.5434618,12.1565176,1,4,Alpine,https://axwwgrkdco.cloudimg.io/v7/__gmpics3__/f538673a06ec4d38b2db5bb74d06c25d.jpg,https://guide.michelin.com/us/en/veneto/cortina-d-ampezzo/restaurant/sanbrite
106453,Vignamare,Andora,Italia,43.9729346,8.150574,1,4,Modern Cuisine,https://axwwgrkdco.cloudimg.io/v7/__gmpics3__/e135433d65ef4abfb1aa7fc8132ef7a5.jpg,https://guide.michelin.com/us/en/liguria/andora/restaurant/vignamare
106441,Terra The Magic Place,Sarentino,Italia,46.6521107,11.3221975,2,4,Creative,https://axwwgrkdco.cloudimg.io/v7/__gmpics3__/9302e1523e8240e49b899dc662c82df0.jpeg,https://guide.michelin.com/us/en/trentino-alto-adige/sarentino/restaurant/terra151934
106381,Vite,Coriano,Italia,43.986595,12.54202,-1,3,Modern Cuisine,https://axwwgrkdco.cloudimg.io/v7/__gmpics3__/f236a5443312447a966a9f2560c71797.jpeg,https://guide.michelin.com/us/en/emilia-romagna/coriano/restaurant/vite
106334,El Brite di Larieto,Cortina d'Ampezzo,Italia,46.5519115,12.1756742,-1,3,Alpine,https://axwwgrkdco.cloudimg.io/v7/__gmpics3__/4d7db286f58543ac9d45d16d33e5cae1.jpg,https://guide.michelin.com/us/en/veneto/cortina-d-ampezzo/restaurant/el-brite-di-larieto
106331,Osteria del Viandante,Rubiera,Italia,44.65333,10.781861,1,3,Emilian,https://axwwgrkdco.cloudimg.io/v7/__gmpics3__/aa7091eb90f740bca6fee8e788747dcf.jpg,https://guide.michelin.com/us/en/emilia-romagna/rubiera/restaurant/osteria-del-viandante
106318,1908,Soprabolzano,Italia,46.5282559,11.405296,-1,4,Creative,https://axwwgrkdco.cloudimg.io/v7/__gmpics3__/ce30c7ef7d0a4e02abb1f8147f2473c7.jpg,https://guide.michelin.com/us/en/trentino-alto-adige/soprabolzano/restaurant/1908
106307,Il Colmetto,Rodengo Saiano,Italia,45.57434,10.10229,-1,3,Seasonal Cuisine,https://axwwgrkdco.cloudimg.io/v7/__gmpics3__/af12b687d8ad4d968dc091fbcd535f05.jpg,https://guide.michelin.com/us/en/lombardia/rodengo-saiano/restaurant/il-colmetto
106306,Grow Restaurant,Albiate,Italia,45.659927,9.2560185,1,3,Farm to table,https://axwwgrkdco.cloudimg.io/v7/__gmpics3__/599b955fbb7d43d981074098d2650efb.jpg,https://guide.michelin.com/us/en/lombardia/albiate/restaurant/grow-restaurant
106201,Il Poggio Rosso,Castelnuovo Berardenga,Italia,43.3880261,11.4599683,1,4,Creative,https://axwwgrkdco.cloudimg.io/v7/__gmpics3__/5322db05274e4ca5917a974ca79c781b.jpeg,https://guide.michelin.com/us/en/toscana/castelnuovo-berardenga/restaurant/poggio-rosso
106147,[àbitat],San Fermo della Battaglia,Italia,45.814,9.0315,-1,3,Innovative,https://axwwgrkdco.cloudimg.io/v7/__gmpics3__/ef289f120aad41f88b98c5bd062bdb96.jpeg,https://guide.michelin.com/us/en/lombardia/san-fermo-della-battaglia/restaurant/abitat
106131,Osteria Francescana,Modena,Italia,44.6448099,10.9215518,3,4,Creative,https://axwwgrkdco.cloudimg.io/v7/__gmpics3__/7f3f869de4744a84b80469475f698f04.jpg,https://guide.michelin.com/us/en/emilia-romagna/modena/restaurant/osteria-francescana
106119,Villa Pignano,Volterra,Italia,43.4165316,10.9615533,-1,3,Contemporary,https://axwwgrkdco.cloudimg.io/v7/__gmpics3__/1389f31c23dd4818b3660463a45e9f39.jpg,https://guide.michelin.com/us/en/toscana/volterra/restaurant/villa-pignano
106105,Contrada Bricconi,Oltressenda Alta,Italia,45.922027,9.9503694,1,4,Country cooking,https://axwwgrkdco.cloudimg.io/v7/__gmpics3__/f42579c01da945dabbb15c75585e83b8.jpg,https://guide.michelin.com/us/en/lombardia/oltressenda-alta/restaurant/contrada-bricconi
106097,Al Gatto Verde,Modena,Italia,44.6102868,10.980026,1,4,Contemporary,https://axwwgrkdco.cloudimg.io/v7/__gmpics3__/bd8607ac51e34557a9ced6a8c018e603.jpg,https://guide.michelin.com/us/en/emilia-romagna/modena/restaurant/al-gatto-verde
106085,Fradis Minoris,Pula,Italia,38.9867335,9.0067135,1,4,Sardinian,https://axwwgrkdco.cloudimg.io/v7/__gmpics3__/178e8412aa504360a6fab0d040ac3b38.jpeg,https://guide.michelin.com/us/en/sardegna/pula/restaurant/fradis-minoris
106073,Marco Bottega Ristorante,Genazzano,Italia,41.81092,12.966885,1,3,Creative,https://axwwgrkdco.cloudimg.io/v7/__gmpics3__/c47906264cfc48d09923af9c81b943bf.jpeg,https://guide.michelin.com/us/en/lazio/genazzano/restaurant/aminta-resort
106057,Dattilo,Strongoli,Italia,39.2678209,17.0817921,1,4,Country cooking,https://axwwgrkdco.cloudimg.io/v7/__gmpics3__/0caf7b6231de4780913259f865f167a4.jpg,https://guide.michelin.com/us/en/calabria/strongoli/restaurant/dattilo
106055,Hyle,San Giovanni in Fiore,Italia,39.2851384,16.6441951,1,4,Modern Cuisine,https://axwwgrkdco.cloudimg.io/v7/__gmpics3__/f9cb3bec10fa4532ba97452744e6aa09.jpeg,https://guide.michelin.com/us/en/calabria/san-giovanni-in-fiore/restaurant/hyle
106033,Gardenia,Caluso,Italia,45.3034572,7.8896044,-1,3,Piedmontese,https://axwwgrkdco.cloudimg.io/v7/__gmpics3__/a596942dba10415d9973fabc957c8778.jpeg,https://guide.michelin.com/us/en/piemonte/caluso/restaurant/gardenia
106009,El Molin,Cavalese,Italia,46.292019,11.4594756,1,4,Alpine,https://axwwgrkdco.cloudimg.io/v7/__gmpics3__/e6c3ff54c01e4f7189abaa553971e532.jpeg,https://guide.michelin.com/us/en/trentino-alto-adige/cavalese/restaurant/el-molin
106003,Dal Pescatore,Runate,Italia,45.1712728,10.3565788,3,4,Italian Contemporary,https://axwwgrkdco.cloudimg.io/v7/__gmpics3__/73505972fdbd45048952912c2edb2080.jpg,https://guide.michelin.com/us/en/lombardia/runate/restaurant/dal-pescatore
105972,D'O,Cornaredo,Italia,45.48711,9.01175,2,4,Creative,https://axwwgrkdco.cloudimg.io/v7/__gmpics3__/80b60c2aa0774c77845be7db2e2c6b9b.jpeg,https://guide.michelin.com/us/en/lombardia/cornaredo/restaurant/d-o
105942,Caffè La Crepa,Isola Dovarese,Italia,45.1760808,10.3123463,0,2,Lombardian,https://axwwgrkdco.cloudimg.io/v7/__gmpics3__/4b603d7f0ad04a0286635cd2e9c8d234.jpg,https://guide.michelin.com/us/en/lombardia/isola-dovarese/restaurant/caffe-la-crepa
105897,Ahimè,Bologna,Italia,44.4966213,11.337969,0,2,Country cooking,,https://guide.michelin.com/us/en/emilia-romagna/bologna/restaurant/ahime
105853,La Cerreta Osteria,Sassetta,Italia,43.1280121,10.6608082,-1,3,Tuscan,https://axwwgrkdco.cloudimg.io/v7/__gmpics3__/d4c09a4f6a1b40eda75ee652f97e99d3.jpg,https://guide.michelin.com/us/en/toscana/sassetta/restaurant/la-cerreta-osteria
105808,Saporium,Chiusdino,Italia,43.1414359,11.1278724,1,4,Tuscan,https://axwwgrkdco.cloudimg.io/v7/__gmpics3__/95e7ceff9c8c4cf4bd917db23c0111cb.jpg,https://guide.michelin.com/us/en/toscana/chiusdino/restaurant/saporium
105805,Piazza Duomo,Alba,Italia,44.7005555,8.0359341,3,4,Creative,https://axwwgrkdco.cloudimg.io/v7/__gmpics3__/15d8c54a15b548d2a0c1c89a131eddd0.jpeg,https://guide.michelin.com/us/en/piemonte/alba/restaurant/piazza-duomo
105739,I Tenerumi,Isola Vulcano,Italia,38.4305495,14.9560516,1,4,Vegetarian,https://axwwgrkdco.cloudimg.io/v7/__gmpics3__/a5d7df3956614ce694c40c39b8ff456e.jpeg,https://guide.michelin.com/us/en/sicilia/isola-vulcano/restaurant/i-tenerumi
105543,Pavāru māja,Līgatne,Latvia,57.2353497,25.0421338,-1,3,Modern Cuisine,https://axwwgrkdco.cloudimg.io/v7/__gmpics3__/317c5a4d34474484acb9abbd7011e8b6.jpg,https://guide.michelin.com/us/en/vidzeme/ligatne_1990283/restaurant/pavaru-maja
105513,Osteria Del Centro,Comano,Switzerland,46.0365245,8.9548663,-1,3,Modern Cuisine,https://axwwgrkdco.cloudimg.io/v7/__gmpics3__/5f5b3507bf4846f9b17163262a352847.jpeg,https://guide.michelin.com/us/en/ticino/comano_1154542/restaurant/osteria-del-centro
105510,OZ,Fürstenau,Switzerland,46.7210956,9.4461197,1,4,Vegetarian,https://axwwgrkdco.cloudimg.io/v7/__gmpics3__/cc0487fa2123415785987c982d3c1250.jpg,https://guide.michelin.com/us/en/graubunden/frstenau/restaurant/oz
105509,KLE,Zurich,Switzerland,47.3715034,8.5209664,1,3,Vegan,https://axwwgrkdco.cloudimg.io/v7/__gmpics3__/b663e112b0334cadb95d92d6b89ce9bb.jpg,https://guide.michelin.com/us/en/zurich-region/zurich/restaurant/kle
105497,Magdalena,Schwyz,Switzerland,47.0169188,8.6659803,2,4,Modern Cuisine,https://axwwgrkdco.cloudimg.io/v7/__gmpics3__/7defae6808564bfeb3a2a742938f022d.jpg,https://guide.michelin.com/us/en/schwyz/schwyz/restaurant/magdalena
105490,La Pinte des Mossettes,Cerniat,Switzerland,46.653577,7.196424,1,4,Creative,https://axwwgrkdco.cloudimg.io/v7/__gmpics3__/419bf5f0cb784eefb2c7d359fbe75fbc.jpg,https://guide.michelin.com/us/en/fribourg-region/cerniat/restaurant/la-pinte-des-mossettes-1194720
105484,Wiesner Mysterion – Werkstatt Kost,Romoos,Switzerland,46.9791869,7.98581,0,2,Farm to table,https://axwwgrkdco.cloudimg.io/v7/__gmpics3__/5fe5abe0ef4146a8a5c0ffe0149a0742.jpg,https://guide.michelin.com/us/en/luzern-region/romoos_1152275/restaurant/wiesner-mysterion-%E2%80%93-werkstatt-kost
105482,Helvetia,Sankt Gallen,Switzerland,47.4188376,9.35678,-1,3,Contemporary,https://axwwgrkdco.cloudimg.io/v7/__gmpics3__/6bc611576718456da9e88445632fb237.jpeg,https://guide.michelin.com/us/en/sankt-gallen-region/sankt-gallen/restaurant/helvetia
105472,DAR,Zurich,Switzerland,47.3837072,8.5284634,0,2,Vegan,https://axwwgrkdco.cloudimg.io/v7/__gmpics3__/fa31eac6773b4a8596ec44a01fe372de.jpeg,https://guide.michelin.com/us/en/zurich-region/zurich/restaurant/dar
105446,Regina Montium,Rigi Kaltbad,Switzerland,47.0483709,8.4641542,1,4,Creative,https://axwwgrkdco.cloudimg.io/v7/__gmpics3__/1dc0c62c1c254a5d8c0873031f9b30ba.jpeg,https://guide.michelin.com/us/en/luzern-region/rigi-kaltbad/restaurant/regina-montium
105428,Schloss Wartegg,Rorschacherberg,Switzerland,47.4785116,9.5298861,-1,2,Regional Cuisine,https://axwwgrkdco.cloudimg.io/v7/__gmpics3__/d5d69af2f490405c94d59ffc16ad0415.jpeg,https://guide.michelin.com/us/en/sankt-gallen-region/rorschacherberg/restaurant/schloss-wartegg
105392,ZOE,Berne,Switzerland,46.9474398,7.450242,1,3,Vegetarian,https://axwwgrkdco.cloudimg.io/v7/__gmpics3__/bcb897eb2a4f4e86979f05c5e404f02c.jpeg,https://guide.michelin.com/us/en/bern-region/bern/restaurant/zoe
105378,Brasserie Uno,Zermatt,Switzerland,46.0192354,7.7474356,1,4,Contemporary,https://axwwgrkdco.cloudimg.io/v7/__gmpics3__/c0afba781312498d992e725db95f55fe.jpg,https://guide.michelin.com/us/en/wallis/zermatt/restaurant/brasserie-uno
105372,Wiesner Mysterion - Wiesner - Zauber,Romoos,Switzerland,46.9791881,7.9858069,1,4,Creative,https://axwwgrkdco.cloudimg.io/v7/__gmpics3__/62ec0a4cc65c44eab8e37d3aff01ce6b.jpeg,https://guide.michelin.com/us/en/luzern-region/romoos_1152275/restaurant/wiesner-mysterion-zauber
105364,Gilles Varone,Savièse,Switzerland,46.2501082,7.3506266,1,4,Modern Cuisine,https://axwwgrkdco.cloudimg.io/v7/__gmpics3__/2da51ed231354a22b287a5e6d412f662.jpeg,https://guide.michelin.com/us/en/valais/saviese_1157070/restaurant/gilles-varone
105340,Le Maguet,Les Evouettes,Switzerland,46.365367,6.8749489,-1,3,Classic French,https://axwwgrkdco.cloudimg.io/v7/__gmpics3__/8b8a89b6b6dd42a49e727de438bff377.jpeg,https://guide.michelin.com/us/en/wallis/les-evouettes/restaurant/le-maguet
105316,Marktküche,Zurich,Switzerland,47.3787189,8.5233338,-1,3,Vegetarian,https://axwwgrkdco.cloudimg.io/v7/__gmpics3__/590e22c752004d47bed8908450401e7d.jpeg,https://guide.michelin.com/us/en/zurich-region/zurich/restaurant/marktkuche
105315,Elisa - Bistro & Terrasse,Brienz,Switzerland,46.7352612,8.023246,-1,2,Seasonal Cuisine,https://axwwgrkdco.cloudimg.io/v7/__gmpics3__/a91ed009e55e4735a82c29a87a785b09.jpeg,https://guide.michelin.com/us/en/bern-region/brienz/restaurant/elisa-bistro-terrasse
105291,Bistro by Regina Montium,Rigi Kaltbad,Switzerland,47.0483577,8.4640786,0,2,Swiss,https://axwwgrkdco.cloudimg.io/v7/__gmpics3__/d9c2336c0a414d1d9efe4743320a44f6.jpeg,https://guide.michelin.com/us/en/luzern-region/rigi-kaltbad/restaurant/bistrot-by-regina-montium
105251,Bären,Schwarzenburg,Switzerland,46.8176503,7.3413206,0,2,Regional Cuisine,https://axwwgrkdco.cloudimg.io/v7/__gmpics3__/2659884b37bf488d87896bda9da25dfd.jpeg,https://guide.michelin.com/us/en/bern-region/schwarzenburg/restaurant/baren-182932
105248,Maison Manesse,Zurich,Switzerland,47.3650965,8.521285,1,4,Creative,https://axwwgrkdco.cloudimg.io/v7/__gmpics3__/b26209bccfcd430eb3f4f4099ac44800.jpeg,https://guide.michelin.com/us/en/zurich-region/zurich/restaurant/maison-manesse
105246,Rechberg 1837,Zurich,Switzerland,47.3740149,8.546173,-1,3,Innovative,https://axwwgrkdco.cloudimg.io/v7/__gmpics3__/a43fc4ca572246c5befbb25116f6269e.jpeg,https://guide.michelin.com/us/en/zurich-region/zurich/restaurant/rechberg-1837
105240,Schloss Schauenstein,Fürstenau,Switzerland,46.7211969,9.4462648,3,4,Creative,https://axwwgrkdco.cloudimg.io/v7/__gmpics3__/4e032d7638c34da3a50ee8b589b0ac18.jpeg,https://guide.michelin.com/us/en/graubunden/frstenau/restaurant/schloss-schauenstein
105226,Silex,Zurich,Switzerland,47.3715042,8.5245449,-1,3,Creative,https://axwwgrkdco.cloudimg.io/v7/__gmpics3__/46798253f9ea49ba92a3f5763cea0b49.jpg,https://guide.michelin.com/us/en/zurich-region/zurich/restaurant/silex
105212,Radius by Stefan Beer,Interlaken,Switzerland,46.6865553,7.8575473,1,4,Regional Cuisine,https://axwwgrkdco.cloudimg.io/v7/__gmpics3__/705fe59c41e14e4185bda976da4cf76a.jpg,https://guide.michelin.com/us/en/bern-region/interlaken/restaurant/radius-by-stefan-beer
105189,Auberge de l'Abbaye de Montheron,Cugy,Switzerland,46.5902002,6.6640386,-1,3,Modern Cuisine,https://axwwgrkdco.cloudimg.io/v7/__gmpics3__/d0b558e6227746968a49ec37dbab2984.jpeg,https://guide.michelin.com/us/en/vaud/cugy/restaurant/auberge-de-l-abbaye-de-montheron
105177,Sven Wassmer Memories,Bad Ragaz,Switzerland,47.0002941,9.5037741,3,4,Creative,https://axwwgrkdco.cloudimg.io/v7/__gmpics3__/8a4ca6fbc9b740b09516b8e3ca37ad8e.jpg,https://guide.michelin.com/us/en/sankt-gallen-region/bad-ragaz/restaurant/memories
105163,elmira,Zurich,Switzerland,47.3888413,8.5265176,1,4,Creative,https://axwwgrkdco.cloudimg.io/v7/__gmpics3__/49238374139c43aea94ac50a960e7fe2.jpeg,https://guide.michelin.com/us/en/zurich-region/zurich/restaurant/elmira
105145,EquiTable,Zurich,Switzerland,47.3778541,8.5212339,1,4,Modern Cuisine,https://axwwgrkdco.cloudimg.io/v7/__gmpics3__/1f1e51f4d9cb47499cecca6bfd71b962.jpg,https://guide.michelin.com/us/en/zurich-region/zurich/restaurant/equitable-im-sankt-meinrad
105143,roots,Basel,Switzerland,47.5697547,7.5830618,2,4,Modern Cuisine,https://axwwgrkdco.cloudimg.io/v7/__gmpics3__/8e9f5e63d9cb4edfb01f6f1248b105c1.jpeg,https://guide.michelin.com/us/en/basel-stadt/basel/restaurant/roots568552
105103,Gasthof zur Sonne,Stäfa,Switzerland,47.2393856,8.7180143,0,2,Swiss,https://axwwgrkdco.cloudimg.io/v7/__gmpics3__/3739dd20cb154e89a3f652449c6cf011.jpeg,https://guide.michelin.com/us/en/zurich-region/stfa/restaurant/gasthof-zur-sonne
105091,Scalottas - Terroir,Lenzerheide,Switzerland,46.7256622,9.5576171,-1,2,Regional Cuisine,https://axwwgrkdco.cloudimg.io/v7/__gmpics3__/6113ec464ca84ad1b25a44bd5cb5031e.jpeg,https://guide.michelin.com/us/en/graubunden/lenzerheide/restaurant/scalottas-terroir
105071,Casa Caminada,Fürstenau,Switzerland,46.721039,9.4456677,0,2,Country cooking,https://axwwgrkdco.cloudimg.io/v7/__gmpics3__/acce12023a7b4893b4fe0b9a8f40a7cc.jpg,https://guide.michelin.com/us/en/graubunden/frstenau/restaurant/casa-caminada
105051,Du Bourg,Biel,Switzerland,47.1411781,7.2456915,1,3,Modern Cuisine,https://axwwgrkdco.cloudimg.io/v7/__gmpics3__/2db500c96b12464dab6bb694b2f013a4.jpg,https://guide.michelin.com/us/en/bern-region/biel/restaurant/du-bourg
105035,Eder's Eichmühle,Wädenswil,Switzerland,47.2142963,8.6814569,-1,3,Farm to table,https://axwwgrkdco.cloudimg.io/v7/__gmpics3__/b2ef40fa0269469ab25f41d977fce490.jpeg,https://guide.michelin.com/us/en/zurich-region/wdenswil/restaurant/eder-s-eichmuhle
104905,La Paix,Tokyo,Japan,35.685136,139.775586,1,3,French,https://axwwgrkdco.cloudimg.io/v7/__gmpics3__/bad4c6b0176d467ebe8b6ddcb1cb815e.jpg,https://guide.michelin.com/us/en/tokyo-region/tokyo/restaurant/la-paix-1194221
104893,FARO,Tokyo,Japan,35.66852,139.761906,1,3,Italian,https://axwwgrkdco.cloudimg.io/v7/__gmpics3__/872fd739aa4e4653bb211ef4bb44fb7e.jpeg,https://guide.michelin.com/us/en/tokyo-region/tokyo/restaurant/faro-1194154
104752,Nœud. TOKYO,Tokyo,Japan,35.67969,139.738705,-1,3,French,https://axwwgrkdco.cloudimg.io/v7/__gmpics3__/623e320ff8e1486989edbaef19458f4b.jpeg,https://guide.michelin.com/us/en/tokyo-region/tokyo/restaurant/n%C5%93ud-tokyo
104736,Florilège,Tokyo,Japan,35.661598,139.743562,2,3,French,https://axwwgrkdco.cloudimg.io/v7/__gmpics3__/08154454c5054fec8048f0b9cff03430.jpeg,https://guide.michelin.com/us/en/tokyo-region/tokyo/restaurant/florilege
104695,Daigo,Tokyo,Japan,35.66344,139.749184,1,3,Shojin,https://axwwgrkdco.cloudimg.io/v7/__gmpics3__/7a9390b33a494e9bafbb19ad70a46986.jpeg,https://guide.michelin.com/us/en/tokyo-region/tokyo/restaurant/daigo
104688,Den,Tokyo,Japan,35.67321,139.712697,2,3,Japanese,https://axwwgrkdco.cloudimg.io/v7/__gmpics3__/b2d8e6e025f0470a95d2d613a750f6c0.jpeg,https://guide.michelin.com/us/en/tokyo-region/tokyo/restaurant/den
104644,Crony,Tokyo,Japan,35.655769,139.743334,2,4,French,https://axwwgrkdco.cloudimg.io/v7/__gmpics3__/ec125b3b157c4c309733442d4eaeb94d.jpg,https://guide.michelin.com/us/en/tokyo-region/tokyo/restaurant/crony-1194937
104635,Sincère,Tokyo,Japan,35.676969,139.704359,1,3,French,https://axwwgrkdco.cloudimg.io/v7/__gmpics3__/723a8805c0a74d3cacb52aebd8d844d4.jpeg,https://guide.michelin.com/us/en/tokyo-region/tokyo/restaurant/sincere
104569,NARISAWA,Tokyo,Japan,35.671585,139.722147,2,4,Innovative,https://axwwgrkdco.cloudimg.io/v7/__gmpics3__/437796b1cada4278b158ccc485a51d5b.jpeg,https://guide.michelin.com/us/en/tokyo-region/tokyo/restaurant/narisawa
104547,L'Effervescence,Tokyo,Japan,35.660299,139.719454,3,4,French,https://axwwgrkdco.cloudimg.io/v7/__gmpics3__/d56ed6b270654c399ab3dde2612e6578.jpeg,https://guide.michelin.com/us/en/tokyo-region/tokyo/restaurant/l-effervescence
104485,LATURE,Tokyo,Japan,35.660762,139.708599,1,3,French,https://axwwgrkdco.cloudimg.io/v7/__gmpics3__/d81a5f932cea4ea59811dd1847e5e848.jpg,https://guide.michelin.com/us/en/tokyo-region/tokyo/restaurant/lature
104460,King's Joy,Beijing,Beijing,39.946681,116.410004,2,4,Vegetarian,https://axwwgrkdco.cloudimg.io/v7/__gmpics3__/587617bac91746f3bc6e87a06061d2ec.jpeg,https://guide.michelin.com/us/en/beijing-municipality/beijing/restaurant/king-s-joy
104343,Flore,Amsterdam,Netherlands,52.3676602,4.8942749,2,4,Contemporary,https://axwwgrkdco.cloudimg.io/v7/__gmpics3__/eaadc2c71d9d4ed790d05e417377f3d2.jpg,https://guide.michelin.com/us/en/noord-holland/amsterdam/restaurant/flore
104286,Héron,Utrecht,Netherlands,52.0880216,5.1274096,0,2,Organic,https://axwwgrkdco.cloudimg.io/v7/__gmpics3__/f3086389511d41f3a02e5360c9c3ddc4.jpg,https://guide.michelin.com/us/en/utrecht/utrecht/restaurant/heron
104256,Bolenius,Amsterdam,Netherlands,52.3361146,4.873797,1,4,Creative,https://axwwgrkdco.cloudimg.io/v7/__gmpics3__/3ae01b64d2a9430abf05242195c51ffe.jpeg,https://guide.michelin.com/us/en/noord-holland/amsterdam/restaurant/bolenius
104229,Neder,Alkmaar,Netherlands,52.6292992,4.7501576,-1,3,Country cooking,https://axwwgrkdco.cloudimg.io/v7/__gmpics3__/4cc6ff5df7de4c9ba88888b2fcefbacf.jpg,https://guide.michelin.com/us/en/noord-holland/alkmaar/restaurant/neder
104217,Rotonde,Rotterdam,Netherlands,51.9240615,4.4913759,0,2,Vegetarian,https://axwwgrkdco.cloudimg.io/v7/__gmpics3__/57c5317edef448a5ba6abd97a7d74189.jpeg,https://guide.michelin.com/us/en/zuid-holland/rotterdam/restaurant/rotonde
104212,De Nieuwe Winkel,Nijmegen,Netherlands,51.8473893,5.8595982,2,4,Organic,https://axwwgrkdco.cloudimg.io/v7/__gmpics3__/6bf64a032364452f9e7ab067c77e0681.jpeg,https://guide.michelin.com/us/en/gelderland/nijmegen/restaurant/de-nieuwe-winkel
104211,Heimat,Utrecht,Netherlands,52.095265,5.1285273,-1,3,Farm to table,https://axwwgrkdco.cloudimg.io/v7/__gmpics3__/f035b80df453437dab92ee8510505cc0.jpeg,https://guide.michelin.com/us/en/utrecht/utrecht/restaurant/heimat-1212769
104191,De Dyck,Woubrugge,Netherlands,52.1905993,4.6858122,-1,3,Organic,https://axwwgrkdco.cloudimg.io/v7/__gmpics3__/535648f44f3f4a96a9d141853b50f9a0.jpg,https://guide.michelin.com/us/en/zuid-holland/woubrugge_2215771/restaurant/de-dyck
104192,Lutum,Wijk bij Duurstede,Netherlands,51.9729251,5.3450659,1,3,Creative,https://axwwgrkdco.cloudimg.io/v7/__gmpics3__/d143d51fe114494cb58993238c47132d.jpeg,https://guide.michelin.com/us/en/utrecht/wijk-bij-duurstede/restaurant/lutum
104190,Morille,Koudekerke,Netherlands,51.4835059,3.5516384,-1,3,Regional Cuisine,https://axwwgrkdco.cloudimg.io/v7/__gmpics3__/e1c388344ba64aaead050732a8cb0cd5.jpg,https://guide.michelin.com/us/en/zeeland/koudekerke/restaurant/morille
104186,Het Seminar,Zenderen,Netherlands,52.3220386,6.730642,-1,3,Modern Cuisine,https://axwwgrkdco.cloudimg.io/v7/__gmpics3__/6847e9f7dcf94710bd5043f62eca1235.jpeg,https://guide.michelin.com/us/en/overijssel/zenderen/restaurant/het-seminar
104156,Aan Sjuuteeänjd,Schinnen,Netherlands,50.943868,5.881862,-1,3,Regional Cuisine,https://axwwgrkdco.cloudimg.io/v7/__gmpics3__/451b2626c1da4045b40b6f54cff3ff4b.jpg,https://guide.michelin.com/us/en/limburg/schinnen/restaurant/aan-sjuuteeanjd
104145,Lokaal,Doetinchem,Netherlands,51.972502,6.2886379,-1,3,Modern Cuisine,https://axwwgrkdco.cloudimg.io/v7/__gmpics3__/1c6597bbe0904f12933db9456f653c9b.jpeg,https://guide.michelin.com/us/en/gelderland/doetinchem/restaurant/lokaal
104090,Triptyque,Wateringen,Netherlands,52.0247891,4.2741909,1,3,Creative,https://axwwgrkdco.cloudimg.io/v7/__gmpics3__/c266b01439bb43be87c5421ff7553fc0.jpg,https://guide.michelin.com/us/en/zuid-holland/wateringen/restaurant/triptyque
104081,Hof aan Zee,Koudekerke,Netherlands,51.4788955,3.5194759,-1,3,Scandinavian,https://axwwgrkdco.cloudimg.io/v7/__gmpics3__/6837d8a3f8544c6a93cce6d4c2900ab9.jpg,https://guide.michelin.com/us/en/zeeland/koudekerke/restaurant/hof-aan-zee
104056,Mearkas,Eastermar,Netherlands,53.1902945,6.0677196,-1,3,Seasonal Cuisine,https://axwwgrkdco.cloudimg.io/v7/__gmpics3__/02995866794a42ceb74d133bcff601f5.jpg,https://guide.michelin.com/us/en/friesland/eastermar_2214270/restaurant/mearkas
103968,De Librije,Zwolle,Netherlands,52.5153644,6.0980183,3,4,Modern Cuisine,https://axwwgrkdco.cloudimg.io/v7/__gmpics3__/81abe25e302c43b4b42e14c2ade20285.jpeg,https://guide.michelin.com/us/en/overijssel/zwolle/restaurant/de-librije
103955,De Kas,Amsterdam,Netherlands,52.3522847,4.9302753,1,3,Organic,https://axwwgrkdco.cloudimg.io/v7/__gmpics3__/59c7cb3f2dda4be482c1476be732406c.jpeg,https://guide.michelin.com/us/en/noord-holland/amsterdam/restaurant/de-kas
103925,Kook Atelier op Oost,Oosterend,Netherlands,53.0968229,4.8903551,-1,3,Organic,https://axwwgrkdco.cloudimg.io/v7/__gmpics3__/379b998defa241a58a4135e58540d386.jpeg,https://guide.michelin.com/us/en/noord-holland/oosterend/restaurant/kook-atelier-op-oost
103918,Fermin,Rotterdam,Netherlands,51.9311876,4.4850445,-1,2,Country cooking,https://axwwgrkdco.cloudimg.io/v7/__gmpics3__/f39ace9345fb4a159b65bacad8d4b3ab.jpg,https://guide.michelin.com/us/en/zuid-holland/rotterdam/restaurant/fermin
103898,ONE,Roermond,Netherlands,51.1895014,5.9808834,1,4,Creative,https://axwwgrkdco.cloudimg.io/v7/__gmpics3__/78640983164e4fffa0ae64ce8b6ea36c.jpeg,https://guide.michelin.com/us/en/limburg/roermond/restaurant/one
103888,Flores,Nijmegen,Netherlands,51.846282,5.8704667,-1,3,Country cooking,https://axwwgrkdco.cloudimg.io/v7/__gmpics3__/33cb3284c368415f93f1d422ec4c8289.jpg,https://guide.michelin.com/us/en/gelderland/nijmegen/restaurant/bistro-flores
103885,Restaurant Vannu,Bavel,Netherlands,51.5581248,4.8385449,-1,3,Farm to table,https://axwwgrkdco.cloudimg.io/v7/__gmpics3__/040415c7f28149edb6f3d261f5106c45.jpeg,https://guide.michelin.com/us/en/noord-brabant/bavel_2215893/restaurant/restaurant-vannu
103718,Restaurant Pearl Morissette,Lincoln,Canada,43.1560307,-79.3559402,1,4,Contemporary,https://axwwgrkdco.cloudimg.io/v7/__gmpics3__/c2623789870045b68a462557617a3687.jpg,https://guide.michelin.com/us/en/ontario/lincoln_1246046/restaurant/restaurant-pearl-morissette
103686,White Lily Diner,Toronto,Canada,43.6586734,-79.351165,0,2,Creative,https://axwwgrkdco.cloudimg.io/v7/__gmpics3__/2c77cd09376948ac8d9cb933b403d395.jpg,https://guide.michelin.com/us/en/ontario/toronto/restaurant/white-lily-diner
103464,Mi Xun Teahouse,Chengdu,Chengdu,30.654727,104.081984,1,2,Vegetarian,https://axwwgrkdco.cloudimg.io/v7/__gmpics3__/99f8ae8e45384c11843acea30723c038.jpeg,https://guide.michelin.com/us/en/chengdu-municipality/chengdu/restaurant/mi-xun-teahouse
103264,Thomas Chien,Kaohsiung,Taiwan,22.6043997,120.3008295,-1,3,French Contemporary,https://axwwgrkdco.cloudimg.io/v7/__gmpics3__/5b1554460c52432abb6756e70347251f.jpg,https://guide.michelin.com/us/en/kaohsiung-region/kaohsiung/restaurant/thomas-chien
103235,Yangming Spring (Shilin),Taipei,Taiwan,25.1442022,121.5595115,-1,3,Vegetarian,https://axwwgrkdco.cloudimg.io/v7/__gmpics3__/eb8b22bc3f444bfdae363f209056d2c7.jpg,https://guide.michelin.com/us/en/taipei-region/taipei/restaurant/yangming-spring-shilin
103226,EMBERS,Taipei,Taiwan,25.03582,121.55014,-1,4,Taiwanese contemporary,https://axwwgrkdco.cloudimg.io/v7/__gmpics3__/d0330264849a4cffbe2117e62cf6a7e5.jpeg,https://guide.michelin.com/us/en/taipei-region/taipei/restaurant/embers
103134,Little Tree Food (Da'an Road),Taipei,Taiwan,25.0399033,121.5447888,0,2,Vegetarian,https://axwwgrkdco.cloudimg.io/v7/__gmpics3__/086dee9a89df4fffaf6752f91c22290f.jpg,https://guide.michelin.com/us/en/taipei-region/taipei/restaurant/little-tree-food-da-an-road
103131,Mountain and Sea House,Taipei,Taiwan,25.0380165,121.5313736,1,3,Taiwanese,https://axwwgrkdco.cloudimg.io/v7/__gmpics3__/4fddd96e8c0247bc8e0a2c55a2886ee3.jpeg,https://guide.michelin.com/us/en/taipei-region/taipei/restaurant/mountain-and-sea-house
103059,Hosu,Taipei,Taiwan,25.0439036,121.5500623,-1,3,Taiwanese contemporary,https://axwwgrkdco.cloudimg.io/v7/__gmpics3__/9bcf3053bda9487496d6ae5e20a750a6.jpg,https://guide.michelin.com/us/en/taipei-region/taipei/restaurant/hosu
102252,Teible,Dubai,Dubai,25.2289489,55.3414444,0,2,Modern Cuisine,https://axwwgrkdco.cloudimg.io/v7/__gmpics3__/2f081625740d482da826980b274c7bef.jpg,https://guide.michelin.com/us/en/dubai-emirate/dubai/restaurant/teible
102246,Boca,Dubai,Dubai,25.2140452,55.2829438,-1,3,Mediterranean Cuisine,https://axwwgrkdco.cloudimg.io/v7/__gmpics3__/59c32593ff714157a2c47e9dd1ee8bca.jpeg,https://guide.michelin.com/us/en/dubai-emirate/dubai/restaurant/boca-516182
102239,LOWE,Dubai,Dubai,25.0922668,55.301953,-1,2,Contemporary,https://axwwgrkdco.cloudimg.io/v7/__gmpics3__/608c530fdffb47b39b58140e0c246917.jpeg,https://guide.michelin.com/us/en/dubai-emirate/dubai/restaurant/lowe
102106,Nén Danang,Da Nang,Vietnam,16.03466,108.24062,-1,4,Vietnamese Contemporary,https://axwwgrkdco.cloudimg.io/v7/__gmpics3__/3a63621d38234506a21eea210de1afe0.jpeg,https://guide.michelin.com/us/en/da-nang-region/da-nang_2984390/restaurant/nen-danang
101980,Zinfandel's,Zagreb,Croatia,45.8054747,15.9759303,-1,4,Modern Cuisine,https://axwwgrkdco.cloudimg.io/v7/__gmpics3__/a8864604bb4247caaef7864672393128.jpeg,https://guide.michelin.com/us/en/zagreb-region/zagreb/restaurant/zinfandel-s
101968,Konoba Mate,Korcula,Croatia,42.9508141,17.037417,0,2,Country cooking,https://axwwgrkdco.cloudimg.io/v7/__gmpics3__/9965056a4e51434580fe50b8c1e32410.jpeg,https://guide.michelin.com/us/en/dubrovnik-neretva/korcula/restaurant/konoba-mate
101951,Korak,Jastrebarsko,Croatia,45.7260304,15.6500062,1,4,Contemporary,https://axwwgrkdco.cloudimg.io/v7/__gmpics3__/3adb6011b6bc4101b9be3fffa29aeb40.jpeg,https://guide.michelin.com/us/en/zagreb-region/jastrebarsko_1779514/restaurant/korak
101888,Fiz,Singapore,Singapore,1.279692,103.844015,-1,3,Malaysian,https://axwwgrkdco.cloudimg.io/v7/__gmpics3__/cb0a94ecc3194c54a7ae03ca6f9faa89.jpg,https://guide.michelin.com/us/en/singapore-region/singapore/restaurant/fiz
101877,Seroja,Singapore,Singapore,1.29993,103.85802,1,3,Malaysian,https://axwwgrkdco.cloudimg.io/v7/__gmpics3__/505ca3935a554f8f977f81a0afbcc958.jpeg,https://guide.michelin.com/us/en/singapore-region/singapore/restaurant/seroja
101598,Eliksir,Gdansk,Poland,54.3837902,18.588553,-1,2,Modern Cuisine,https://axwwgrkdco.cloudimg.io/v7/__gmpics3__/cde7404d8ba04f2a8b6bfa78ed4f716a.jpeg,https://guide.michelin.com/us/en/pomerania/gdansk_2403599/restaurant/eliksir
101529,Grič,Šentjošt nad Horjulom,Slovenia,46.0283624,14.2216299,1,4,Farm to table,https://axwwgrkdco.cloudimg.io/v7/__gmpics3__/9d087aa92d4847f190e426de4199fa2f.jpg,https://guide.michelin.com/us/en/lower-carniola/sentjost-nad-horjulom/restaurant/gostisce-gric
101524,Špacapanova Hiša,Komen,Slovenia,45.8173515,13.7470004,-1,3,Contemporary,https://axwwgrkdco.cloudimg.io/v7/__gmpics3__/4f91c9d0918544c8a7a1b004a28a3ff8.jpeg,https://guide.michelin.com/us/en/coastal%E2%80%93karst/komen/restaurant/spacapanova-hisa
101516,Hiša Linhart,Radovljica,Slovenia,46.3408368,14.1750205,1,3,Contemporary,https://axwwgrkdco.cloudimg.io/v7/__gmpics3__/ab8b5feb9fa24b64a2048f0a3a633a0f.jpeg,https://guide.michelin.com/us/en/upper-carniola/radovljica/restaurant/hisa-linhart
101514,Hiša Franko,Kobarid,Slovenia,46.2472961,13.5382362,3,4,Creative,https://axwwgrkdco.cloudimg.io/v7/__gmpics3__/646393987d834ce6a16bc372da31a3fb.jpeg,https://guide.michelin.com/us/en/gorizia/kobarid/restaurant/hisa-franko
101509,Gostilna Krištof,Kranj,Slovenia,46.2680267,14.385542,-1,2,Traditional Cuisine,https://axwwgrkdco.cloudimg.io/v7/__gmpics3__/e04aaf83fef44dab945cf34e94b88307.jpeg,https://guide.michelin.com/us/en/upper-carniola/kranj/restaurant/gostilna-kristof
101490,Gostilna Repovž,Šentjanž,Slovenia,46.0111224,15.1692284,-1,2,Farm to table,https://axwwgrkdco.cloudimg.io/v7/__gmpics3__/6ebd6595b9634edf9529afd082e4733b.jpg,https://guide.michelin.com/us/en/southeast-slovenia/sentjanz/restaurant/gostilna-repovz
101479,Gostilna Mahorčič,Rodik,Slovenia,45.6247236,13.9801944,0,2,Regional European,https://axwwgrkdco.cloudimg.io/v7/__gmpics3__/028c9dbd829049b590e0dd613f0f2682.jpeg,https://guide.michelin.com/us/en/coastal%E2%80%93karst/rodik/restaurant/mahorcic
101476,Galerija okusov,Petrovče,Slovenia,46.2457883,15.1784594,-1,3,Modern Cuisine,https://axwwgrkdco.cloudimg.io/v7/__gmpics3__/14b893a5a7a149d085a9ae15a904f9c8.jpg,https://guide.michelin.com/us/en/savinja/petrovce/restaurant/galerija-okusov
101456,Red Brick,Radiškis,Lithuania,55.3376483,24.9131945,-1,4,Modern Cuisine,https://axwwgrkdco.cloudimg.io/v7/__gmpics3__/cd2b7f13816c470890be4b6c2c1bcd26.jpg,https://guide.michelin.com/us/en/vilnius-region/radiskis_7770291/restaurant/red-brick
101272,Yong,Guangzhou,Guangzhou,23.1214657,113.2911037,1,4,Sichuan,https://axwwgrkdco.cloudimg.io/v7/__gmpics3__/111de9669fc6422da32bd0e7739933b0.jpeg,https://guide.michelin.com/us/en/guangdong-province/guangzhou/restaurant/yong
101207,Fotografiska,Stockholm,Sweden,59.3179954,18.0848142,-1,3,Country cooking,https://axwwgrkdco.cloudimg.io/v7/__gmpics3__/04000e53e85344cba2f5b7e427ffff2d.jpg,https://guide.michelin.com/us/en/stockholm-region/stockholm/restaurant/fotografiska
101201,Frederiksminde,Præstø,Denmark,55.12424,12.049009,1,4,Modern Cuisine,https://axwwgrkdco.cloudimg.io/v7/__gmpics3__/fa99bfd3934c4528b6b85724b0ff234b.jpg,https://guide.michelin.com/us/en/zealand/praesto/restaurant/frederiksminde
101199,Molskroen,Ebeltoft,Denmark,56.229523,10.604763,-1,3,Modern Cuisine,https://axwwgrkdco.cloudimg.io/v7/__gmpics3__/3eb68b32845644828fb5b60b40353a96.jpg,https://guide.michelin.com/us/en/central-denmark/ebeltoft/restaurant/molskroen
101193,Domestic,Aarhus,Denmark,56.1590191,10.2120322,1,3,Modern Cuisine,https://axwwgrkdco.cloudimg.io/v7/__gmpics3__/d12477547cb64a28ad39f3b3a4734396.jpg,https://guide.michelin.com/us/en/central-denmark/aarhus/restaurant/domestic
101192,Kadeau Copenhagen,Copenhagen,Denmark,55.6722948,12.5888136,2,4,Creative,https://axwwgrkdco.cloudimg.io/v7/__gmpics3__/f6b3ea79b30f4ef2bb02247ac36f4841.jpg,https://guide.michelin.com/us/en/capital-region/copenhagen/restaurant/kadeau-copenhagen
101164,Alimentum,Aalborg,Denmark,57.0457734,9.9292863,-1,3,Modern Cuisine,https://axwwgrkdco.cloudimg.io/v7/__gmpics3__/16a965d8d25149819693d607fc2cf1d4.jpeg,https://guide.michelin.com/us/en/north-denmark/aalborg/restaurant/alimentum
101153,Stallen,Oslo,Norway,59.9238866,10.7263103,1,3,Norwegian,https://axwwgrkdco.cloudimg.io/v7/__gmpics3__/7bacdab963ae4e5983684509634da001.jpeg,https://guide.michelin.com/us/en/oslo-region/oslo/restaurant/stallen
101152,Tèrra,Copenhagen,Denmark,55.694735,12.5708358,-1,3,Modern Cuisine,https://axwwgrkdco.cloudimg.io/v7/__gmpics3__/6f4ff1721e8d4ddba23866485fab3bc2.jpg,https://guide.michelin.com/us/en/capital-region/copenhagen/restaurant/terra-1190331
101151,ÄNG,Tvååker,Sweden,57.0649323,12.5594919,1,4,Creative,https://axwwgrkdco.cloudimg.io/v7/__gmpics3__/a5dd1ee841d04354ac4ecf135146b40a.jpeg,https://guide.michelin.com/us/en/hallands/tvaaker/restaurant/ang
101146,LYST,Vejle,Denmark,55.7060238,9.5548961,1,4,Creative,https://axwwgrkdco.cloudimg.io/v7/__gmpics3__/b05f29a803514f2eb692e562a20525b0.jpeg,https://guide.michelin.com/us/en/southern-denmark/vejle/restaurant/lyst
101145,Ark,Copenhagen,Denmark,55.6851727,12.5681998,-1,3,Vegan,https://axwwgrkdco.cloudimg.io/v7/__gmpics3__/daa238d273514a7b8e5094b4dd999fe5.jpg,https://guide.michelin.com/us/en/capital-region/copenhagen/restaurant/ark
101137,Knystaforsen,Rydöbruk,Sweden,56.958207,13.1400487,1,4,Modern Cuisine,https://axwwgrkdco.cloudimg.io/v7/__gmpics3__/254a19a943d74bfd881842a57ecdf8e7.jpg,https://guide.michelin.com/us/en/hallands/rydobruk/restaurant/knystaforsen
101134,Hærværk,Aarhus,Denmark,56.1478296,10.1963525,-1,2,Danish,https://axwwgrkdco.cloudimg.io/v7/__gmpics3__/242bdc4a18a14ec2a117e6d25414942a.jpeg,https://guide.michelin.com/us/en/central-denmark/aarhus/restaurant/haervaerk
101126,Nokka,Helsinki,Finland,60.169035,24.960124,-1,3,Modern Cuisine,https://axwwgrkdco.cloudimg.io/v7/__gmpics3__/0c45c6215fa6446db97a71f922d767a3.jpeg,https://guide.michelin.com/us/en/uusimaa/helsinki/restaurant/nokka
101113,Kontrast,Oslo,Norway,59.922727,10.7511251,2,4,Scandinavian,https://axwwgrkdco.cloudimg.io/v7/__gmpics3__/060b7b509db9446f871a486055dfad24.jpeg,https://guide.michelin.com/us/en/oslo-region/oslo/restaurant/kontrast
101099,Moment,Rønde,Denmark,56.2814408,10.5877073,-1,2,Modern Cuisine,https://axwwgrkdco.cloudimg.io/v7/__gmpics3__/d8925e10b79b463f81582693d08fa5e9.jpeg,https://guide.michelin.com/us/en/central-denmark/ronde/restaurant/moment
101095,Alouette,Copenhagen,Denmark,55.6829942,12.5811647,1,3,Modern Cuisine,https://axwwgrkdco.cloudimg.io/v7/__gmpics3__/13edb4695ad249d09beec8aad2b62dd3.jpg,https://guide.michelin.com/us/en/capital-region/copenhagen/restaurant/alouette
101092,noma,Copenhagen,Denmark,55.6833118,12.6106175,3,4,Creative,https://axwwgrkdco.cloudimg.io/v7/__gmpics3__/a7ab01b61b0e4372a877db5bf1a31084.jpg,https://guide.michelin.com/us/en/capital-region/copenhagen/restaurant/noma
101091,Henne Kirkeby Kro,Henne,Denmark,55.7270112,8.2423144,2,4,Classic Cuisine,https://axwwgrkdco.cloudimg.io/v7/__gmpics3__/45bcb4e200d042de859189df07388303.jpeg,https://guide.michelin.com/us/en/southern-denmark/henne/restaurant/henne-kirkeby-kro
101083,DILL,Reykjavík,Iceland,64.1443654,-21.922443,1,4,Creative,https://axwwgrkdco.cloudimg.io/v7/__gmpics3__/098712a4923645728fb259b07a781f39.jpeg,https://guide.michelin.com/us/en/capital-region-iceland/reykjavik/restaurant/dill1186101
101072,JORD,Linkoping,Sweden,58.4073604,15.6022776,-1,3,Modern Cuisine,https://axwwgrkdco.cloudimg.io/v7/__gmpics3__/1e7d47e9b4954249a12f953f6cc1af39.jpeg,https://guide.michelin.com/us/en/ostergotland/linkoping_2608143/restaurant/jord-1202242
101049,Tri,Agger,Denmark,56.7820975,8.2331898,1,3,Creative,https://axwwgrkdco.cloudimg.io/v7/__gmpics3__/037fa16973a04ad58c3712318ad12497.jpg,https://guide.michelin.com/us/en/north-denmark/agger/restaurant/tri-1203718
101025,Natura,Helsinki,Finland,60.1636375,24.9423269,-1,3,Finnish,https://axwwgrkdco.cloudimg.io/v7/__gmpics3__/656a5fe4a47e4d339d5293789f3c172b.jpeg,https://guide.michelin.com/us/en/uusimaa/helsinki/restaurant/natura
101018,Grön,Helsinki,Finland,60.1646073,24.9326985,1,4,Creative,https://axwwgrkdco.cloudimg.io/v7/__gmpics3__/5e4a9afed08743a7b992377e4bd53b51.jpg,https://guide.michelin.com/us/en/uusimaa/helsinki/restaurant/gron
101015,Kadeau Bornholm,Åkirkeby,Denmark,55.0045738,14.9690273,1,4,Creative,https://axwwgrkdco.cloudimg.io/v7/__gmpics3__/a565dff3dd6d420db2d116d9de3895a0.jpg,https://guide.michelin.com/us/en/capital-region/kirkeby/restaurant/kadeau-bornholm
101011,FYR Bistronomi & Bar,Oslo,Norway,59.9238618,10.7262339,-1,2,Modern Cuisine,https://axwwgrkdco.cloudimg.io/v7/__gmpics3__/65096bed58bf4371b910ee99ac0bdb90.jpeg,https://guide.michelin.com/us/en/oslo-region/oslo/restaurant/fyr-bistronomi-bar
101003,Alchemist,Copenhagen,Denmark,55.6940951,12.6137461,2,4,Innovative,https://axwwgrkdco.cloudimg.io/v7/__gmpics3__/8062b4976023429fa5c89f6d1270b705.jpeg,https://guide.michelin.com/us/en/capital-region/copenhagen/restaurant/alchemist
101001,Bistro Lupa,Copenhagen,Denmark,55.7035355,12.5851885,0,2,Vegan,https://axwwgrkdco.cloudimg.io/v7/__gmpics3__/a8f34270239d468293a9db3f05319932.jpeg,https://guide.michelin.com/us/en/capital-region/copenhagen/restaurant/bistro-lupa
100995,K2,Stavanger,Norway,58.9697479,5.7461623,1,3,Modern Cuisine,https://axwwgrkdco.cloudimg.io/v7/__gmpics3__/0a3b728280a7424f99062114d10e67cb.jpeg,https://guide.michelin.com/us/en/rogaland/stavanger/restaurant/k2-1192264
100992,Etoile,Stockholm,Sweden,59.3495123,18.0437729,1,4,Creative,https://axwwgrkdco.cloudimg.io/v7/__gmpics3__/8286fb2e65984387a74bea94f626e910.jpeg,https://guide.michelin.com/us/en/stockholm-region/stockholm/restaurant/etoile
100987,Maaemo,Oslo,Norway,59.9075293,10.7586363,3,4,Modern Cuisine,https://axwwgrkdco.cloudimg.io/v7/__gmpics3__/5742fef4012c452aacb930b0ab930ed5.jpeg,https://guide.michelin.com/us/en/oslo-region/oslo/restaurant/maaemo-1194933
100982,VÅR,Porvoo,Finland,60.396319,25.6640296,1,4,Modern Cuisine,https://axwwgrkdco.cloudimg.io/v7/__gmpics3__/e4d5f25df7f14d5db6918efd7a6add17.jpg,https://guide.michelin.com/us/en/uusimaa/porvoo_1627402/restaurant/var-1198201
100975,Nolla,Helsinki,Finland,60.1634013,24.9381305,0,2,Modern Cuisine,https://axwwgrkdco.cloudimg.io/v7/__gmpics3__/93e4596e1662425eadbec7b8aae16801.jpeg,https://guide.michelin.com/us/en/uusimaa/helsinki/restaurant/nolla
100958,PM & Vänner,Växjö,Sweden,56.8789279,14.8043573,1,4,Creative,https://axwwgrkdco.cloudimg.io/v7/__gmpics3__/345eb2994676498a9237de5418386e12.jpeg,https://guide.michelin.com/us/en/kronoberg/vaxjo/restaurant/pm-vanner
100947,Oxenstiernan,Stockholm,Sweden,59.3348436,18.0889461,-1,3,Regional Cuisine,https://axwwgrkdco.cloudimg.io/v7/__gmpics3__/bbc028647b5c4e559d2b59fe668b8709.jpeg,https://guide.michelin.com/us/en/stockholm-region/stockholm/restaurant/oxenstiernan
100938,Fotografiska,Tallinn,Estonia,59.4382631,24.7287568,-1,2,Modern Cuisine,https://axwwgrkdco.cloudimg.io/v7/__gmpics3__/355513644a5f4fc58d34ca5a52b9767a.jpg,https://guide.michelin.com/us/en/harju/tallinn/restaurant/fotografiska-1199007
100928,Kolm Sõsarat,Lüllemäe,Estonia,57.75131,26.37397,-1,4,Modern Cuisine,https://axwwgrkdco.cloudimg.io/v7/__gmpics3__/53b0753bf44f4078902e180a5cb3c9ab.jpg,https://guide.michelin.com/us/en/valga-maakond/lullemae_1465486/restaurant/kolm-sosarat
100925,SOO,Maidla,Estonia,59.051638,24.8971753,-1,3,Modern Cuisine,https://axwwgrkdco.cloudimg.io/v7/__gmpics3__/2967e52e8e6d41faa88177efcb30313c.jpeg,https://guide.michelin.com/us/en/rapla-region/maidla_1465522/restaurant/soo
100829,Tuju,São Paulo,Brazil,-23.5805339,-46.6855567,2,4,Creative,https://axwwgrkdco.cloudimg.io/v7/__gmpics3__/33baca704f9e4a57977a4628441f12c3.png,https://guide.michelin.com/us/en/sao-paulo-region/sao-paulo/restaurant/tuju
100782,A Casa do Porco,São Paulo,Brazil,-23.5448671,-46.6447421,-1,2,Brazilian,https://axwwgrkdco.cloudimg.io/v7/__gmpics3__/d8cf9e79bace471baeb5994aafde803a.jpeg,https://guide.michelin.com/us/en/sao-paulo-region/sao-paulo/restaurant/a-casa-do-porco
100779,Corrutela,São Paulo,Brazil,-23.55524,-46.68576,0,2,Seasonal Cuisine,https://axwwgrkdco.cloudimg.io/v7/__gmpics3__/a3811f64490048689d57974b0178653b.jpg,https://guide.michelin.com/us/en/sao-paulo-region/sao-paulo/restaurant/corrutela
100648,Deckman's En El Mogor,Valle de Guadalupe,Mexico,32.0360195,-116.6029495,-1,4,Mexican,https://axwwgrkdco.cloudimg.io/v7/__gmpics3__/4b709186b2ea4d47b3fc492ea1008e91.jpg,https://guide.michelin.com/us/en/baja-california/valle-de-guadalupe_7770290/restaurant/deckman-s-en-el-mogor
100617,Conchas de Piedra,Valle de Guadalupe,Mexico,31.9802589,-116.6530788,1,3,Seafood,https://axwwgrkdco.cloudimg.io/v7/__gmpics3__/19dedc6c277744e887d0b3decbef0531.jpeg,https://guide.michelin.com/us/en/baja-california/valle-de-guadalupe_7770290/restaurant/conchas-de-piedra
100612,Los Danzantes Oaxaca,Oaxaca,Mexico,17.0651301,-96.7239336,1,3,Mexican,https://axwwgrkdco.cloudimg.io/v7/__gmpics3__/e99cb1a4c3b649fcb96c026085f639ad.jpg,https://guide.michelin.com/us/en/oaxaca/oaxaca-de-juarez_2056768/restaurant/los-danzantes-oaxaca
100611,Flora's Field Kitchen,San José del Cabo,Mexico,23.0799707,-109.6771851,0,2,Contemporary,https://axwwgrkdco.cloudimg.io/v7/__gmpics3__/233c20287a6c4a46aae86330c65ca9ae.jpeg,https://guide.michelin.com/us/en/baja-california-sur/san-jose-del-cabo_2061454/restaurant/flora-s-field-kitchen
100613,Acre,San José del Cabo,Mexico,23.0790926,-109.6811316,-1,3,Mexican,https://axwwgrkdco.cloudimg.io/v7/__gmpics3__/88ab907f2c9c4a99be7cbc431f75315a.jpg,https://guide.michelin.com/us/en/baja-california-sur/san-jose-del-cabo_2061454/restaurant/acre
100594,Lunario,El Porvenir,Mexico,32.018246,-116.6628715,-1,4,Mexican,https://axwwgrkdco.cloudimg.io/v7/__gmpics3__/88c082742b484477b6efec9b9f5a5b5b.jpg,https://guide.michelin.com/us/en/baja-california/el-porvenir_2059721/restaurant/lunario
100558,AWA Naramachiten,Nara,Japan,34.678613,135.830542,-1,2,Japanese,https://axwwgrkdco.cloudimg.io/v7/__gmpics3__/01b6e5bf2b9d44a6b27609b6a1aa67e3.jpeg,https://guide.michelin.com/us/en/nara-region/nara/restaurant/awa-naramachiten
100542,Kiyosuminosato AWA,Nara,Japan,34.632427,135.854843,-1,2,Japanese,https://axwwgrkdco.cloudimg.io/v7/__gmpics3__/950ac665d6db4373bd15148282995643.jpeg,https://guide.michelin.com/us/en/nara-region/nara/restaurant/kiyosuminosato-awa
100532,Chugokusai Naramachi Kuko,Nara,Japan,34.6745317,135.8345922,1,3,Chinese,https://axwwgrkdco.cloudimg.io/v7/__gmpics3__/ba41ac5a5f394fba903f5cbb34edea9c.jpeg,https://guide.michelin.com/us/en/nara-region/nara/restaurant/chugokusai-naramachi-kuko
100530,Da terra,Nara,Japan,34.472669,135.816499,1,3,Italian,https://axwwgrkdco.cloudimg.io/v7/__gmpics3__/b59e66ff4c024da8b491d4bcad159f38.jpeg,https://guide.michelin.com/us/en/nara-region/nara/restaurant/da-terra-1197086
100520,Sanjuhachi,Nara,Japan,34.508629,135.743501,-1,3,Italian,https://axwwgrkdco.cloudimg.io/v7/__gmpics3__/ffffd049f2c64c49a82a229ef1e8732f.jpg,https://guide.michelin.com/us/en/nara-region/nara/restaurant/sanjuhachi
100518,Kuramoto Ryori Maruto Shoyu,Nara,Japan,34.549966,135.816381,-1,3,Japanese,https://axwwgrkdco.cloudimg.io/v7/__gmpics3__/e591cce20a804fb8936bf03288510f31.jpg,https://guide.michelin.com/us/en/nara-region/nara/restaurant/kuramoto-ryori-maruto-shoyu
100113,Muromachi Wakuden,Kyoto,Japan,35.010146,135.763257,1,3,Japanese,https://axwwgrkdco.cloudimg.io/v7/__gmpics3__/18929f09f58348099ede79a7dd18f2b9.jpg,https://guide.michelin.com/us/en/kyoto-region/kyoto/restaurant/muromachi-wakuden
100112,Sojiki Nakahigashi,Kyoto,Japan,35.027601,135.792708,2,3,Japanese,https://axwwgrkdco.cloudimg.io/v7/__gmpics3__/6594a10cdb9a4461a2c2b1cb01cf2023.jpeg,https://guide.michelin.com/us/en/kyoto-region/kyoto/restaurant/sojiki-nakahigashi
100094,Terada,Osaka,Japan,34.674331,135.532779,1,3,Japanese,https://axwwgrkdco.cloudimg.io/v7/__gmpics3__/6a09ba3d20ac450bac2d5ed876a3bad5.jpeg,https://guide.michelin.com/us/en/osaka-region/osaka/restaurant/terada
99984,Shigetsu,Kyoto,Japan,35.015281,135.673591,0,2,Shojin,https://axwwgrkdco.cloudimg.io/v7/__gmpics3__/1a846f89365846098f9874fca810f63f.jpeg,https://guide.michelin.com/us/en/kyoto-region/kyoto/restaurant/shigetsu
99945,la bûche,Kyoto,Japan,35.120006,135.829962,1,3,French,https://axwwgrkdco.cloudimg.io/v7/__gmpics3__/d9fe046cbf084ee08ad84e28b3fd2ed2.jpeg,https://guide.michelin.com/us/en/kyoto-region/kyoto/restaurant/la-buche
99906,Kashiwaya Osaka Senriyama,Osaka,Japan,34.770287,135.501289,3,3,Japanese,https://axwwgrkdco.cloudimg.io/v7/__gmpics3__/2472da2526e742d7b557ac04f1d1711b.jpg,https://guide.michelin.com/us/en/osaka-region/osaka/restaurant/kashiwaya-osaka-senriyama
99892,Miyamaso,Kyoto,Japan,35.233154,135.793011,2,3,Japanese,https://axwwgrkdco.cloudimg.io/v7/__gmpics3__/a53e7287259849fa9adcffbc1e3294c7.jpeg,https://guide.michelin.com/us/en/kyoto-region/kyoto/restaurant/miyamaso
99866,Juu-go,Kyoto,Japan,35.025573,135.795684,0,1,Soba,https://axwwgrkdco.cloudimg.io/v7/__gmpics3__/22679f307a364b91b35f1f5495cd31c5.jpeg,https://guide.michelin.com/us/en/kyoto-region/kyoto/restaurant/juu-go
99863,Tan,Kyoto,Japan,35.008907,135.780809,0,2,Japanese,https://axwwgrkdco.cloudimg.io/v7/__gmpics3__/6d2f2ad0a00d4bfa9397363074ad7f4d.jpeg,https://guide.michelin.com/us/en/kyoto-region/kyoto/restaurant/tan
99799,Kodaiji Wakuden,Kyoto,Japan,35.001635,135.779734,2,4,Japanese,https://axwwgrkdco.cloudimg.io/v7/__gmpics3__/8ca37b18ea4f41a49a3bd8ac56b20e7f.jpeg,https://guide.michelin.com/us/en/kyoto-region/kyoto/restaurant/kodaiji-wakuden
99779,Unkaku,Osaka,Japan,34.69484,135.518716,-1,3,Japanese,https://axwwgrkdco.cloudimg.io/v7/__gmpics3__/71749340fb7e4dbb802fa59d0d054b85.jpeg,https://guide.michelin.com/us/en/osaka-region/osaka/restaurant/unkaku
99678,Traube,Heidelberg,Germany,49.3783967,8.6932115,-1,4,Regional Cuisine,https://axwwgrkdco.cloudimg.io/v7/__gmpics3__/3158ef6f48e541adba3127743ca89f51.jpg,https://guide.michelin.com/us/en/baden-wurttemberg/heidelberg/restaurant/traube524991
99663,HIO,Pilsach,Germany,49.3014683,11.5954556,-1,4,Creative,https://axwwgrkdco.cloudimg.io/v7/__gmpics3__/de06e9b3e4e844e390330365b116b12d.jpg,https://guide.michelin.com/us/en/bayern/pilsach/restaurant/hio
99662,Hohenhaus Grill,Herleshausen,Germany,51.0410072,10.0801261,-1,2,Country cooking,https://axwwgrkdco.cloudimg.io/v7/__gmpics3__/c2012a43af77446ba7b8faf3bdf65d67.jpeg,https://guide.michelin.com/us/en/hessen/herleshausen/restaurant/hohenhaus-grill
99638,Bandol sur mer,Berlin,Germany,52.5290651,13.3953009,1,4,Creative,https://axwwgrkdco.cloudimg.io/v7/__gmpics3__/55515baef1b84f7fa91b40c24db7d021.jpg,https://guide.michelin.com/us/en/berlin-region/berlin/restaurant/bandol-sur-mer
99632,TISK,Berlin,Germany,52.4801477,13.4323088,-1,2,German,https://axwwgrkdco.cloudimg.io/v7/__gmpics3__/5009015c6d374528b6c472a453d062aa.jpeg,https://guide.michelin.com/us/en/berlin-region/berlin/restaurant/tisk
99611,Landhaus Scherrer,Hamburg,Germany,53.5459914,9.9170486,1,4,Classic Cuisine,https://axwwgrkdco.cloudimg.io/v7/__gmpics3__/79cd4d78895e4e72aaa58673e396113f.jpeg,https://guide.michelin.com/us/en/hamburg-region/hamburg/restaurant/landhaus-scherrer
99605,Hirsch Genusshandwerk,Bad Liebenzell,Germany,48.7898064,8.7500984,-1,2,Farm to table,https://axwwgrkdco.cloudimg.io/v7/__gmpics3__/b3a8bb95963947eb9f7898d837b3d8e3.jpeg,https://guide.michelin.com/us/en/baden-wurttemberg/bad-liebenzell/restaurant/hirsch-genusshandwerk
99590,Ursprung,Königsbronn,Germany,48.7296752,10.0651509,1,4,Creative,https://axwwgrkdco.cloudimg.io/v7/__gmpics3__/f204e9cfd9344af3b7ea404f9e054420.jpg,https://guide.michelin.com/us/en/baden-wurttemberg/knigsbronn/restaurant/ursprung
99583,Gutshof Andres,Kirchlauter,Germany,50.0505473,10.6953797,0,2,Seasonal Cuisine,https://axwwgrkdco.cloudimg.io/v7/__gmpics3__/54f993f065b04c11b28aad3c74924f71.jpeg,https://guide.michelin.com/us/en/bayern/kirchlauter/restaurant/gutshof-andres
99569,Treibgut,Ulm,Germany,48.4118808,10.0124766,0,2,Contemporary,https://axwwgrkdco.cloudimg.io/v7/__gmpics3__/227397212afa47bdae77861c7eae219b.jpeg,https://guide.michelin.com/us/en/baden-wurttemberg/ulm/restaurant/treibgut
99561,Wolfs Junge,Hamburg,Germany,53.5747264,10.017785,-1,3,Farm to table,https://axwwgrkdco.cloudimg.io/v7/__gmpics3__/b912e92fc1244cf5b53784c1e5db1b49.jpeg,https://guide.michelin.com/us/en/hamburg-region/hamburg/restaurant/wolfs-junge
99549,Lammershof Stuben,Birkenau,Germany,49.5507141,8.737863,-1,2,Farm to table,https://axwwgrkdco.cloudimg.io/v7/__gmpics3__/76ce24396ee14c379a48ca059de68dd3.jpeg,https://guide.michelin.com/us/en/hessen/birkenau/restaurant/lammershof-stuben
99543,Sommerau,Bonndorf im Schwarzwald,Germany,47.8164302,8.2580163,0,2,Traditional Cuisine,https://axwwgrkdco.cloudimg.io/v7/__gmpics3__/1490e944a4e8419c98629e6d3338fe2b.jpg,https://guide.michelin.com/us/en/baden-wurttemberg/bonndorf-im-schwarzwald/restaurant/sommerau
99529,Traube,Efringen-Kirchen,Germany,47.6909385,7.5398759,1,4,Modern Cuisine,https://axwwgrkdco.cloudimg.io/v7/__gmpics3__/fa47666ab7fd494ba815ee908a398574.jpeg,https://guide.michelin.com/us/en/baden-wurttemberg/efringen-kirchen/restaurant/traube1181496
99509,Alte Überfahrt,Werder,Germany,52.3797969,12.9449636,1,4,Modern Cuisine,https://axwwgrkdco.cloudimg.io/v7/__gmpics3__/d73c2491c6354b90a0f569b57a121d7b.jpeg,https://guide.michelin.com/us/en/brandenburg/werder/restaurant/alte-uberfahrt
99498,Nobelhart & Schmutzig,Berlin,Germany,52.5051559,13.3906005,1,4,Creative,https://axwwgrkdco.cloudimg.io/v7/__gmpics3__/5e58e9872f5f4e2a8d35fce6dd454521.jpeg,https://guide.michelin.com/us/en/berlin-region/berlin/restaurant/nobelhart-schmutzig
99490,Schloss Hohenstein,Ahorn,Germany,50.2173201,10.9344628,-1,3,Seasonal Cuisine,https://axwwgrkdco.cloudimg.io/v7/__gmpics3__/88bdcb0f9a19424eac916a17edea56fc.jpeg,https://guide.michelin.com/us/en/bayern/ahorn/restaurant/schloss-hohenstein
99458,Fürstenfelder,Fürstenfeldbruck,Germany,48.1707619,11.2473851,0,2,Contemporary,https://axwwgrkdco.cloudimg.io/v7/__gmpics3__/407d2d12d6f748fcad4400d21d2c39d3.jpeg,https://guide.michelin.com/us/en/bayern/frstenfeldbruck/restaurant/furstenfelder
99434,Sennhütte,Kleines Wiesental,Germany,47.7372516,7.7918458,0,2,Country cooking,https://axwwgrkdco.cloudimg.io/v7/__gmpics3__/8e320fdcc3dc4e569fb09b5fd813ff78.jpg,https://guide.michelin.com/us/en/baden-wurttemberg/kleines-wiesental/restaurant/sennhutte
99428,Zeik,Hamburg,Germany,53.5889364,10.001631,1,4,Modern Cuisine,https://axwwgrkdco.cloudimg.io/v7/__gmpics3__/3a3f88c65b1c4289bd7a07a48b914b0b.jpg,https://guide.michelin.com/us/en/hamburg-region/hamburg/restaurant/zeik
99373,Alter Wirt,Grünwald,Germany,48.0398327,11.5228961,-1,2,Country cooking,https://axwwgrkdco.cloudimg.io/v7/__gmpics3__/85587a9c04f14121b348c08c88b3fff6.jpeg,https://guide.michelin.com/us/en/bayern/grnwald/restaurant/alter-wirt
99369,etz,Nuremberg,Germany,49.4575467,11.0536916,2,4,Creative,https://axwwgrkdco.cloudimg.io/v7/__gmpics3__/3b193a7b664d4adeb8deb45e2a9caab9.jpg,https://guide.michelin.com/us/en/bayern/nurnberg/restaurant/etz
99362,haebel,Hamburg,Germany,53.5532432,9.9574392,1,4,Modern Cuisine,https://axwwgrkdco.cloudimg.io/v7/__gmpics3__/8e191b97986544f7b51bc9c4a3421919.jpg,https://guide.michelin.com/us/en/hamburg-region/hamburg/restaurant/haebel
99344,Reussenstein,Böblingen,Germany,48.6824272,9.0192833,-1,3,Traditional Cuisine,https://axwwgrkdco.cloudimg.io/v7/__gmpics3__/7ccb98152a46481b8d6cf446b99d69c8.jpeg,https://guide.michelin.com/us/en/baden-wurttemberg/bblingen/restaurant/zum-reussenstein
99340,BjörnsOx,Dermbach,Germany,50.7161353,10.1198493,1,4,Creative,https://axwwgrkdco.cloudimg.io/v7/__gmpics3__/f0a1844e60744a9fa67ecc140f624cd0.jpeg,https://guide.michelin.com/us/en/thuringen/dermbach/restaurant/bjornsox
99313,Bergfriedel,Bühlertal,Germany,48.6831695,8.188156,0,3,Country cooking,https://axwwgrkdco.cloudimg.io/v7/__gmpics3__/259be0c13fed45429395825e767a6f63.jpeg,https://guide.michelin.com/us/en/baden-wurttemberg/bhlertal/restaurant/bergfriedel
99294,Hirsch,Ellwangen,Germany,48.9551532,10.1607622,0,2,Regional Cuisine,https://axwwgrkdco.cloudimg.io/v7/__gmpics3__/797bddbb56844255ae2a7b4466eed9c6.jpg,https://guide.michelin.com/us/en/baden-wurttemberg/ellwangen-(jagst)_1313960/restaurant/hirsch-1207191
99292,Moosleitner,Freilassing,Germany,47.8435935,12.9542752,-1,2,Country cooking,https://axwwgrkdco.cloudimg.io/v7/__gmpics3__/da0d2fd68f7243b7b01ce6adfc420a98.jpeg,https://guide.michelin.com/us/en/bayern/freilassing/restaurant/moosleitner
99283,Alte Schule - Klassenzimmer,Feldberger Seenlandschaft,Germany,53.3363536,13.5035697,1,4,Modern Cuisine,https://axwwgrkdco.cloudimg.io/v7/__gmpics3__/4384eb09e1ac4da49448975dc08a2c1f.jpg,https://guide.michelin.com/us/en/mecklenburg-vorpommern/feldberger-seenlandschaft/restaurant/alte-schule-klassenzimmer
99278,Wirtshaus zum Herrmannsdorfer Schweinsbräu,Glonn,Germany,47.9933545,11.8976544,-1,3,Farm to table,https://axwwgrkdco.cloudimg.io/v7/__gmpics3__/153633bf2e084596b2a2e0d198bf9f9d.jpeg,https://guide.michelin.com/us/en/bayern/glonn/restaurant/wirtshaus-zum-herrmannsdorfer-schweinsbrau
99270,Seven Swans,Frankfurt on the Main,Germany,50.1096762,8.6871455,1,4,Vegan,https://axwwgrkdco.cloudimg.io/v7/__gmpics3__/42572db3d25d4cc09ac4d5cf568de6c1.jpeg,https://guide.michelin.com/us/en/hessen/frankfurt-am-main/restaurant/seven-swans
99246,ROSE,Hayingen,Germany,48.3198901,9.432333,0,2,Organic,https://axwwgrkdco.cloudimg.io/v7/__gmpics3__/ecd24bcb0c2a4ff9b22528c515c3d74b.jpeg,https://guide.michelin.com/us/en/baden-wurttemberg/hayingen/restaurant/rose
99243,Landgasthof Zur Post,Freiensteinau,Germany,50.4726756,9.3814693,0,1,Country cooking,https://axwwgrkdco.cloudimg.io/v7/__gmpics3__/bd1855a4f01e4bc986f328715cb7bf51.jpeg,https://guide.michelin.com/us/en/hessen/freiensteinau/restaurant/landgasthof-zur-post
99226,mural,Munich,Germany,48.1365989,11.5702579,1,4,Creative,https://axwwgrkdco.cloudimg.io/v7/__gmpics3__/658bdc892d6540f48aa3d51bb4d7479b.jpg,https://guide.michelin.com/us/en/bayern/mnchen/restaurant/mural
99216,Harmonie,Lichtenberg,Germany,50.3844114,11.6790915,0,1,Country cooking,https://axwwgrkdco.cloudimg.io/v7/__gmpics3__/92009d33ef674d8ab30cf71f4b700906.jpg,https://guide.michelin.com/us/en/bayern/lichtenberg/restaurant/harmonie
99196,Flux - Biorestaurant Werratal,Hann. Münden,Germany,51.4024615,9.7159871,0,2,Country cooking,https://axwwgrkdco.cloudimg.io/v7/__gmpics3__/08058d4bff6f44aebb4a5af98fff076b.jpeg,https://guide.michelin.com/us/en/niedersachsen/hann-mnden/restaurant/flux-biorestaurant-werratal
99193,Oben,Heidelberg,Germany,49.38722,8.7356572,1,4,Creative,https://axwwgrkdco.cloudimg.io/v7/__gmpics3__/ad98dbc8d9ae47069bc11b7609959d3b.jpeg,https://guide.michelin.com/us/en/baden-wurttemberg/heidelberg/restaurant/oben
99181,James Farmhouse,Flensburg,Germany,54.8120501,9.4555599,-1,2,Regional Cuisine,https://axwwgrkdco.cloudimg.io/v7/__gmpics3__/493544813fc34eb289fbe3d6e111a0cd.jpeg,https://guide.michelin.com/us/en/schleswig-holstein/flensburg/restaurant/james-farmhouse
99176,100/200 Kitchen,Hamburg,Germany,53.5374323,10.0285764,2,4,Creative,https://axwwgrkdco.cloudimg.io/v7/__gmpics3__/8f1fca9636ca41959fd8eec687eaf8e4.jpeg,https://guide.michelin.com/us/en/hamburg-region/hamburg/restaurant/100-200
99112,Horváth,Berlin,Germany,52.4963922,13.420793,2,4,Creative,https://axwwgrkdco.cloudimg.io/v7/__gmpics3__/702d3f23c9d142a19e056aeda74f5658.jpg,https://guide.michelin.com/us/en/berlin-region/berlin/restaurant/horvath
99097,mural farmhouse - FINE DINE,Munich,Germany,48.0970386,11.5283963,1,4,Seasonal Cuisine,https://axwwgrkdco.cloudimg.io/v7/__gmpics3__/3b03c03f496841ba99f88cca6db05ad9.jpeg,https://guide.michelin.com/us/en/bayern/mnchen/restaurant/mural-farmhouse
99055,FREA,Berlin,Germany,52.5283821,13.3939533,-1,3,Vegan,https://axwwgrkdco.cloudimg.io/v7/__gmpics3__/4a1ca3038320482191a78f344e12eae9.jpeg,https://guide.michelin.com/us/en/berlin-region/berlin/restaurant/frea
99011,Gasthaus Goldener Stern,Friedberg,Germany,48.3242031,11.059657,0,2,Country cooking,https://axwwgrkdco.cloudimg.io/v7/__gmpics3__/dbe6ec669cdc4db882f61632cf1057b1.jpeg,https://guide.michelin.com/us/en/bayern/friedberg/restaurant/gasthaus-goldener-stern
99008,erasmus,Karlsruhe,Germany,48.9848686,8.4033911,-1,3,Italian,https://axwwgrkdco.cloudimg.io/v7/__gmpics3__/da2bba83957242b1b8f76a533426e139.jpeg,https://guide.michelin.com/us/en/baden-wurttemberg/karlsruhe/restaurant/erasmus
99006,Moarwirt,Dietramszell,Germany,47.8221606,11.5479564,0,2,Farm to table,https://axwwgrkdco.cloudimg.io/v7/__gmpics3__/8c69ce9e125544e2923c54b8c8f7a614.jpeg,https://guide.michelin.com/us/en/bayern/dietramszell/restaurant/moarwirt
99000,Jägerwirt,Bad Tölz,Germany,47.7994554,11.5750231,0,2,Country cooking,https://axwwgrkdco.cloudimg.io/v7/__gmpics3__/390d3d321af948a4ab26335abbdcc270.jpeg,https://guide.michelin.com/us/en/bayern/bad-tlz/restaurant/jagerwirt
98998,derWaldfrieden,Todtnau,Germany,47.7677871,7.9526309,0,2,Country cooking,https://axwwgrkdco.cloudimg.io/v7/__gmpics3__/d34741a351bd43a2abe4f0c5b65dbfa7.jpeg,https://guide.michelin.com/us/en/baden-wurttemberg/todtnau/restaurant/derwaldfrieden
98995,Rutz,Berlin,Germany,52.5283507,13.3860867,3,4,Modern Cuisine,https://axwwgrkdco.cloudimg.io/v7/__gmpics3__/03f8a20ade07493d9caac3ba428222c4.jpeg,https://guide.michelin.com/us/en/berlin-region/berlin/restaurant/rutz
98984,Zur Sonne,Sankt Peter,Germany,48.0157533,8.0319312,-1,2,Country cooking,https://axwwgrkdco.cloudimg.io/v7/__gmpics3__/5738da43973b41bcbf8dc1f6e5df74b3.jpeg,https://guide.michelin.com/us/en/baden-wurttemberg/sankt-peter/restaurant/zur-sonne
98948,Landhaus Tanner,Waging am See,Germany,47.9319116,12.7426818,0,3,Country cooking,https://axwwgrkdco.cloudimg.io/v7/__gmpics3__/c76c3ac968f943adab4710b87af50f4d.jpg,https://guide.michelin.com/us/en/bayern/waging-am-see/restaurant/landhaus-tanner
98935,Hofgut Ruppertsberg,Ruppertsberg,Germany,49.401599,8.1914336,-1,3,Country cooking,https://axwwgrkdco.cloudimg.io/v7/__gmpics3__/4e755efbb89245ac881e38b051da848c.jpg,https://guide.michelin.com/us/en/rheinland-pfalz/ruppertsberg/restaurant/hofgut-ruppertsberg
98923,Essigbrätlein,Nuremberg,Germany,49.455062,11.0748188,2,4,Innovative,https://axwwgrkdco.cloudimg.io/v7/__gmpics3__/ea08bad7114c49dd90a39f04504e095c.jpeg,https://guide.michelin.com/us/en/bayern/nurnberg/restaurant/essigbratlein
98918,Spielweg,Münstertal,Germany,47.8775192,7.8375246,-1,2,Asian Influences,https://axwwgrkdco.cloudimg.io/v7/__gmpics3__/b712035b733f406287473ec57a19d4ca.jpg,https://guide.michelin.com/us/en/baden-wurttemberg/munstertal/restaurant/spielweg
98886,Zwanzig23 by Lukas Jakobi,Düsseldorf,Germany,51.2061397,6.7789529,1,4,Creative,https://axwwgrkdco.cloudimg.io/v7/__gmpics3__/0d2c24477bff4e479d3fb5dc67ddc2dd.jpeg,https://guide.michelin.com/us/en/nordrhein-westfalen/dusseldorf/restaurant/zwanzig23-by-lukas-jakobi
98874,1804 Hirschau,Munich,Germany,48.161743,11.602656,-1,4,Modern Cuisine,https://axwwgrkdco.cloudimg.io/v7/__gmpics3__/061f226de47142049c9a17ef8085ceaa.jpg,https://guide.michelin.com/us/en/bayern/mnchen/restaurant/1804-hirschau
98868,Das Grace,Flensburg,Germany,54.8119855,9.4556862,1,4,Modern Cuisine,https://axwwgrkdco.cloudimg.io/v7/__gmpics3__/21bbe320f27a403baf8a90f75624d10e.jpg,https://guide.michelin.com/us/en/schleswig-holstein/flensburg/restaurant/das-grace
98844,Regional Friesoythe,Friesoythe,Germany,53.0194997,7.860787,0,2,German,https://axwwgrkdco.cloudimg.io/v7/__gmpics3__/524a6ab1a1a94452a3dd9ee199e2f39e.jpeg,https://guide.michelin.com/us/en/niedersachsen/friesoythe_1344188/restaurant/regional-friesoythe
98820,MARBURGER Esszimmer,Marburg,Germany,50.8182113,8.7716237,1,4,Modern French,https://axwwgrkdco.cloudimg.io/v7/__gmpics3__/9a9f09a859cd4352bf8e29229cec8713.jpeg,https://guide.michelin.com/us/en/hessen/marburg/restaurant/marburger-esszimmer
98791,Broeding,Munich,Germany,48.151496,11.5344111,-1,3,Classic Cuisine,https://axwwgrkdco.cloudimg.io/v7/__gmpics3__/b755cb43a5df47adb290ea2c5ba05805.jpeg,https://guide.michelin.com/us/en/bayern/mnchen/restaurant/broeding
98786,Berchtesgadener Esszimmer,Berchtesgaden,Germany,47.6358238,13.0048551,-1,3,Country cooking,https://axwwgrkdco.cloudimg.io/v7/__gmpics3__/08b91aa510d54fbbb8d0ec56812ca895.jpg,https://guide.michelin.com/us/en/bayern/berchtesgaden/restaurant/berchtesgadener-esszimmer
98782,Anthony's Kitchen,Meerbusch,Germany,51.2571687,6.6826348,1,4,Innovative,https://axwwgrkdco.cloudimg.io/v7/__gmpics3__/0a4785648204499da203e6e7bd75379a.jpg,https://guide.michelin.com/us/en/nordrhein-westfalen/meerbusch/restaurant/anthony-s-kitchen
98746,Gutsküche,Tangstedt,Germany,53.7183731,10.1114846,0,2,Country cooking,https://axwwgrkdco.cloudimg.io/v7/__gmpics3__/104590ffd583463993e53be273531087.jpeg,https://guide.michelin.com/us/en/schleswig-holstein/tangstedt/restaurant/gutskuche
98738,Auers Schlosswirtschaft,Neubeuern,Germany,47.7798647,12.1349498,0,2,Country cooking,https://axwwgrkdco.cloudimg.io/v7/__gmpics3__/8257e5201cd64cce8a5b097a79fd194f.jpeg,https://guide.michelin.com/us/en/bayern/neubeuern/restaurant/auers-schlosswirtschaft
98722,Ramster,Schneverdingen,Germany,53.1108686,9.8030252,0,2,Country cooking,https://axwwgrkdco.cloudimg.io/v7/__gmpics3__/7b689c26d5b442fc87a720a9484b8ab7.jpeg,https://guide.michelin.com/us/en/niedersachsen/schneverdingen/restaurant/ramster
98673,Jacobi,Freiburg im Breisgau,Germany,47.9944889,7.8539514,1,4,Innovative,https://axwwgrkdco.cloudimg.io/v7/__gmpics3__/b6e582aa3bbb4f33800fa69948c65b3c.jpeg,https://guide.michelin.com/us/en/baden-wurttemberg/freiburg-im-breisgau/restaurant/jacobi
98645,mural farmhouse - À LA CARTE,Munich,Germany,48.0973132,11.5284664,-1,2,Regional Cuisine,https://axwwgrkdco.cloudimg.io/v7/__gmpics3__/b58cd3eb192c48a69eac88d75ddf6681.jpg,https://guide.michelin.com/us/en/bayern/mnchen/restaurant/mural-farmhouse-a-la-carte
98643,Green Beetle,Munich,Germany,48.141707,11.6029205,-1,3,Vegetarian,https://axwwgrkdco.cloudimg.io/v7/__gmpics3__/e379da407ca340b2904ae6c416bcc19b.jpg,https://guide.michelin.com/us/en/bayern/mnchen/restaurant/green-beetle
98594,mondi,Kassel,Germany,51.3120159,9.4806055,-1,3,Modern Cuisine,https://axwwgrkdco.cloudimg.io/v7/__gmpics3__/17738ef1ed2a4ebfbd621ea8c3659eb7.jpg,https://guide.michelin.com/us/en/hessen/kassel/restaurant/mondi
98583,Brauereigasthof Aying,Aying,Germany,47.9707646,11.7805504,-1,3,Farm to table,https://axwwgrkdco.cloudimg.io/v7/__gmpics3__/fb266ee986e147529f2af744afe9c051.jpeg,https://guide.michelin.com/us/en/bayern/aying/restaurant/brauereigasthof-aying
98567,Restaurant 1950,Hayingen,Germany,48.3202066,9.4323997,1,4,Regional Cuisine,https://axwwgrkdco.cloudimg.io/v7/__gmpics3__/43bbc4daf1ec418b90c3fa96b07a006e.jpeg,https://guide.michelin.com/us/en/baden-wurttemberg/hayingen/restaurant/restaurant-1950
98557,Veles,Nuremberg,Germany,49.4491082,11.0541219,1,3,Modern Cuisine,https://axwwgrkdco.cloudimg.io/v7/__gmpics3__/522f59525900430ebc6189e5982df69c.jpg,https://guide.michelin.com/us/en/bayern/nurnberg/restaurant/veles
98555,Lockstein 1,Berchtesgaden,Germany,47.6370931,13.0061278,-1,2,Vegetarian,https://axwwgrkdco.cloudimg.io/v7/__gmpics3__/66be4ef71a674341b56af1df97298c09.jpg,https://guide.michelin.com/us/en/bayern/berchtesgaden/restaurant/lockstein-1
98535,Gut Steinbach,Reit im Winkl,Germany,47.6670364,12.4810356,-1,1,Regional Cuisine,https://axwwgrkdco.cloudimg.io/v7/__gmpics3__/76b83f8ffbf64370a6280616082a40d4.jpeg,https://guide.michelin.com/us/en/bayern/reit-im-winkl/restaurant/gut-steinbach
